[{"city":"New York","state":"New York","latitude":40.6943,"longitude":-73.9249,"population":18908608},{"city":"Los Angeles","state":"California","latitude":34.1141,"longitude":-118.4068,"population":11922389},{"city":"Chicago","state":"Illinois","latitude":41.8375,"longitude":-87.6866,"population":8497759},{"city":"Miami","state":"Florida","latitude":25.784,"longitude":-80.2101,"population":6080145},{"city":"Houston","state":"Texas","latitude":29.786,"longitude":-95.3885,"population":5970127},{"city":"Dallas","state":"Texas","latitude":32.7935,"longitude":-96.7667,"population":5830932},{"city":"Philadelphia","state":"Pennsylvania","latitude":40.0077,"longitude":-75.1339,"population":5683533},{"city":"Atlanta","state":"Georgia","latitude":33.7628,"longitude":-84.422,"population":5180179},{"city":"Washington","state":"District of Columbia","latitude":38.9047,"longitude":-77.0163,"population":5116378},{"city":"Boston","state":"Massachusetts","latitude":42.3188,"longitude":-71.0852,"population":4328315},{"city":"Phoenix","state":"Arizona","latitude":33.5722,"longitude":-112.0892,"population":4064275},{"city":"Detroit","state":"Michigan","latitude":42.3834,"longitude":-83.1024,"population":3725908},{"city":"Seattle","state":"Washington","latitude":47.6211,"longitude":-122.3244,"population":3561397},{"city":"San Francisco","state":"California","latitude":37.7558,"longitude":-122.4449,"population":3364979},{"city":"San Diego","state":"California","latitude":32.8313,"longitude":-117.1222,"population":3046560},{"city":"Minneapolis","state":"Minnesota","latitude":44.9635,"longitude":-93.2678,"population":2892569},{"city":"Tampa","state":"Florida","latitude":27.9945,"longitude":-82.4447,"population":2861173},{"city":"Brooklyn","state":"New York","latitude":40.6501,"longitude":-73.9496,"population":2736074},{"city":"Denver","state":"Colorado","latitude":39.762,"longitude":-104.8758,"population":2687458},{"city":"Queens","state":"New York","latitude":40.7498,"longitude":-73.7976,"population":2405464},{"city":"Riverside","state":"California","latitude":33.9381,"longitude":-117.3949,"population":2332836},{"city":"Las Vegas","state":"Nevada","latitude":36.2333,"longitude":-115.2654,"population":2248047},{"city":"Baltimore","state":"Maryland","latitude":39.3051,"longitude":-76.6144,"population":2196524},{"city":"St. Louis","state":"Missouri","latitude":38.6359,"longitude":-90.2451,"population":2130881},{"city":"Portland","state":"Oregon","latitude":45.5371,"longitude":-122.65,"population":2095808},{"city":"San Antonio","state":"Texas","latitude":29.4632,"longitude":-98.5238,"population":2058444},{"city":"Sacramento","state":"California","latitude":38.5677,"longitude":-121.4685,"population":1957738},{"city":"Austin","state":"Texas","latitude":30.3005,"longitude":-97.7522,"population":1905945},{"city":"Orlando","state":"Florida","latitude":28.4773,"longitude":-81.337,"population":1882705},{"city":"San Juan","state":"Puerto Rico","latitude":18.3985,"longitude":-66.061,"population":1814587},{"city":"San Jose","state":"California","latitude":37.3012,"longitude":-121.848,"population":1771413},{"city":"Pittsburgh","state":"Pennsylvania","latitude":40.4397,"longitude":-79.9763,"population":1749091},{"city":"Indianapolis","state":"Indiana","latitude":39.7771,"longitude":-86.1458,"population":1729849},{"city":"Manhattan","state":"New York","latitude":40.7834,"longitude":-73.9662,"population":1694263},{"city":"Cincinnati","state":"Ohio","latitude":39.1413,"longitude":-84.506,"population":1692702},{"city":"Kansas City","state":"Missouri","latitude":39.1238,"longitude":-94.5541,"population":1689556},{"city":"Cleveland","state":"Ohio","latitude":41.4764,"longitude":-81.6805,"population":1680247},{"city":"Columbus","state":"Ohio","latitude":39.9862,"longitude":-82.9855,"population":1572546},{"city":"Bronx","state":"New York","latitude":40.8501,"longitude":-73.8662,"population":1472654},{"city":"Virginia Beach","state":"Virginia","latitude":36.7335,"longitude":-76.0435,"population":1443020},{"city":"Charlotte","state":"North Carolina","latitude":35.2083,"longitude":-80.8303,"population":1427444},{"city":"Milwaukee","state":"Wisconsin","latitude":43.0642,"longitude":-87.9675,"population":1290940},{"city":"Providence","state":"Rhode Island","latitude":41.823,"longitude":-71.4187,"population":1290271},{"city":"Jacksonville","state":"Florida","latitude":30.3322,"longitude":-81.6749,"population":1288298},{"city":"Nashville","state":"Tennessee","latitude":36.1715,"longitude":-86.7842,"population":1177657},{"city":"Salt Lake City","state":"Utah","latitude":40.7776,"longitude":-111.9311,"population":1173879},{"city":"Raleigh","state":"North Carolina","latitude":35.8324,"longitude":-78.6429,"population":1163152},{"city":"Richmond","state":"Virginia","latitude":37.5295,"longitude":-77.4756,"population":1073223},{"city":"Memphis","state":"Tennessee","latitude":35.1087,"longitude":-89.9663,"population":1037998},{"city":"Oklahoma City","state":"Oklahoma","latitude":35.4676,"longitude":-97.5136,"population":998806},{"city":"Hartford","state":"Connecticut","latitude":41.7661,"longitude":-72.6834,"population":974684},{"city":"Louisville","state":"Kentucky","latitude":38.1663,"longitude":-85.6485,"population":963812},{"city":"Buffalo","state":"New York","latitude":42.9018,"longitude":-78.8487,"population":944589},{"city":"New Orleans","state":"Louisiana","latitude":30.0687,"longitude":-89.9288,"population":932759},{"city":"Fort Worth","state":"Texas","latitude":32.7817,"longitude":-97.3474,"population":924663},{"city":"Bridgeport","state":"Connecticut","latitude":41.1918,"longitude":-73.1954,"population":908251},{"city":"Tucson","state":"Arizona","latitude":32.1541,"longitude":-110.8787,"population":878320},{"city":"El Paso","state":"Texas","latitude":31.8476,"longitude":-106.43,"population":865270},{"city":"Omaha","state":"Nebraska","latitude":41.2627,"longitude":-96.0529,"population":821345},{"city":"McAllen","state":"Texas","latitude":26.2252,"longitude":-98.2467,"population":797341},{"city":"Birmingham","state":"Alabama","latitude":33.5279,"longitude":-86.7971,"population":782111},{"city":"Albuquerque","state":"New Mexico","latitude":35.1054,"longitude":-106.6465,"population":769986},{"city":"Tulsa","state":"Oklahoma","latitude":36.1283,"longitude":-95.9042,"population":731743},{"city":"Fresno","state":"California","latitude":36.783,"longitude":-119.7939,"population":725276},{"city":"Charleston","state":"South Carolina","latitude":32.8168,"longitude":-79.9687,"population":706884},{"city":"Rochester","state":"New York","latitude":43.168,"longitude":-77.6162,"population":699921},{"city":"Dayton","state":"Ohio","latitude":39.7805,"longitude":-84.2003,"population":668825},{"city":"Cape Coral","state":"Florida","latitude":26.6443,"longitude":-81.9957,"population":654405},{"city":"Mission Viejo","state":"California","latitude":33.6096,"longitude":-117.6551,"population":642211},{"city":"Colorado Springs","state":"Colorado","latitude":38.8674,"longitude":-104.7605,"population":638194},{"city":"Baton Rouge","state":"Louisiana","latitude":30.442,"longitude":-91.1311,"population":635671},{"city":"Allentown","state":"Pennsylvania","latitude":40.5961,"longitude":-75.4756,"population":627863},{"city":"Ogden","state":"Utah","latitude":41.2279,"longitude":-111.9682,"population":622918},{"city":"Provo","state":"Utah","latitude":40.2457,"longitude":-111.6457,"population":619218},{"city":"Knoxville","state":"Tennessee","latitude":35.9692,"longitude":-83.9496,"population":615829},{"city":"Grand Rapids","state":"Michigan","latitude":42.9619,"longitude":-85.6562,"population":609023},{"city":"Columbia","state":"South Carolina","latitude":34.0378,"longitude":-80.9036,"population":604065},{"city":"Albany","state":"New York","latitude":42.6664,"longitude":-73.7987,"population":590694},{"city":"Bakersfield","state":"California","latitude":35.3529,"longitude":-119.0359,"population":571992},{"city":"New Haven","state":"Connecticut","latitude":41.3113,"longitude":-72.9246,"population":565572},{"city":"Des Moines","state":"Iowa","latitude":41.5725,"longitude":-93.6105,"population":548926},{"city":"Akron","state":"Ohio","latitude":41.0798,"longitude":-81.5219,"population":541945},{"city":"Palm Bay","state":"Florida","latitude":27.9631,"longitude":-80.6593,"population":534348},{"city":"Concord","state":"California","latitude":37.9722,"longitude":-122.0016,"population":531175},{"city":"Wichita","state":"Kansas","latitude":37.6895,"longitude":-97.3443,"population":509003},{"city":"Mesa","state":"Arizona","latitude":33.4015,"longitude":-111.7178,"population":503390},{"city":"Harrisburg","state":"Pennsylvania","latitude":40.2752,"longitude":-76.8843,"population":498329},{"city":"Staten Island","state":"New York","latitude":40.5834,"longitude":-74.1496,"population":495747},{"city":"Toledo","state":"Ohio","latitude":41.6638,"longitude":-83.5827,"population":493302},{"city":"Worcester","state":"Massachusetts","latitude":42.2705,"longitude":-71.8079,"population":486486},{"city":"Long Beach","state":"California","latitude":33.7977,"longitude":-118.167,"population":462293},{"city":"Port St. Lucie","state":"Florida","latitude":27.2796,"longitude":-80.3884,"population":462047},{"city":"Little Rock","state":"Arkansas","latitude":34.7256,"longitude":-92.3577,"population":459409},{"city":"Reno","state":"Nevada","latitude":39.5497,"longitude":-119.8483,"population":457702},{"city":"Spokane","state":"Washington","latitude":47.6671,"longitude":-117.433,"population":456219},{"city":"Madison","state":"Wisconsin","latitude":43.0822,"longitude":-89.393,"population":451652},{"city":"Boise","state":"Idaho","latitude":43.6005,"longitude":-116.2308,"population":449776},{"city":"Bonita Springs","state":"Florida","latitude":26.3558,"longitude":-81.7859,"population":449527},{"city":"Denton","state":"Texas","latitude":33.2175,"longitude":-97.1418,"population":438492},{"city":"Oakland","state":"California","latitude":37.7904,"longitude":-122.2166,"population":437825},{"city":"Springfield","state":"Massachusetts","latitude":42.1155,"longitude":-72.5395,"population":437752},{"city":"Augusta","state":"Georgia","latitude":33.3645,"longitude":-82.0708,"population":437257},{"city":"Kissimmee","state":"Florida","latitude":28.3041,"longitude":-81.4169,"population":431618},{"city":"Winston-Salem","state":"North Carolina","latitude":36.1029,"longitude":-80.261,"population":427706},{"city":"Stockton","state":"California","latitude":37.9765,"longitude":-121.3109,"population":413637},{"city":"Syracuse","state":"New York","latitude":43.0407,"longitude":-76.1437,"population":410732},{"city":"Chattanooga","state":"Tennessee","latitude":35.066,"longitude":-85.2481,"population":406849},{"city":"Lancaster","state":"Pennsylvania","latitude":40.042,"longitude":-76.3012,"population":402476},{"city":"Greenville","state":"South Carolina","latitude":34.8354,"longitude":-82.3646,"population":401443},{"city":"Durham","state":"North Carolina","latitude":35.9792,"longitude":-78.9022,"population":399616},{"city":"Pensacola","state":"Florida","latitude":30.4413,"longitude":-87.1911,"population":398813},{"city":"Fayetteville","state":"Arkansas","latitude":36.0714,"longitude":-94.1661,"population":394650},{"city":"Arlington","state":"Texas","latitude":32.6998,"longitude":-97.125,"population":393469},{"city":"Aurora","state":"Colorado","latitude":39.7083,"longitude":-104.7237,"population":387349},{"city":"Oxnard","state":"California","latitude":34.1964,"longitude":-119.1815,"population":369962},{"city":"Indio","state":"California","latitude":33.7346,"longitude":-116.2346,"population":369654},{"city":"Scranton","state":"Pennsylvania","latitude":41.4044,"longitude":-75.6649,"population":366334},{"city":"Victorville","state":"California","latitude":34.5277,"longitude":-117.3536,"population":364015},{"city":"Trenton","state":"New Jersey","latitude":40.2237,"longitude":-74.7641,"population":362179},{"city":"Modesto","state":"California","latitude":37.6375,"longitude":-121.0028,"population":354183},{"city":"Huntsville","state":"Alabama","latitude":34.6981,"longitude":-86.6412,"population":349482},{"city":"Honolulu","state":"Hawaii","latitude":21.3294,"longitude":-157.846,"population":348547},{"city":"Greensboro","state":"North Carolina","latitude":36.0956,"longitude":-79.8271,"population":347130},{"city":"Anaheim","state":"California","latitude":33.839,"longitude":-117.8574,"population":347111},{"city":"Corpus Christi","state":"Texas","latitude":27.7254,"longitude":-97.3767,"population":337230},{"city":"Fort Wayne","state":"Indiana","latitude":41.0888,"longitude":-85.1436,"population":337163},{"city":"Fort Collins","state":"Colorado","latitude":40.5477,"longitude":-105.0656,"population":335398},{"city":"Jackson","state":"Mississippi","latitude":32.3157,"longitude":-90.2125,"population":335171},{"city":"Myrtle Beach","state":"South Carolina","latitude":33.7094,"longitude":-78.8844,"population":332181},{"city":"Fayetteville","state":"North Carolina","latitude":35.085,"longitude":-78.9772,"population":328804},{"city":"Antioch","state":"California","latitude":37.9787,"longitude":-121.796,"population":327216},{"city":"Lansing","state":"Michigan","latitude":42.7142,"longitude":-84.5601,"population":322561},{"city":"Lexington","state":"Kentucky","latitude":38.0423,"longitude":-84.4587,"population":321276},{"city":"Mobile","state":"Alabama","latitude":30.6782,"longitude":-88.1162,"population":320855},{"city":"Youngstown","state":"Ohio","latitude":41.0993,"longitude":-80.6463,"population":319065},{"city":"Henderson","state":"Nevada","latitude":36.0133,"longitude":-115.0381,"population":318063},{"city":"Savannah","state":"Georgia","latitude":32.0286,"longitude":-81.1821,"population":316050},{"city":"Poughkeepsie","state":"New York","latitude":41.695,"longitude":-73.9211,"population":314159},{"city":"Santa Ana","state":"California","latitude":33.7367,"longitude":-117.8819,"population":311379},{"city":"Ann Arbor","state":"Michigan","latitude":42.2759,"longitude":-83.731,"population":308983},{"city":"St. Paul","state":"Minnesota","latitude":44.9478,"longitude":-93.1039,"population":308806},{"city":"Newark","state":"New Jersey","latitude":40.7245,"longitude":-74.1725,"population":307355},{"city":"Irvine","state":"California","latitude":33.6772,"longitude":-117.7738,"population":304527},{"city":"Santa Rosa","state":"California","latitude":38.4458,"longitude":-122.7067,"population":296180},{"city":"Canton","state":"Ohio","latitude":40.8078,"longitude":-81.3676,"population":294047},{"city":"Asheville","state":"North Carolina","latitude":35.5707,"longitude":-82.5537,"population":294013},{"city":"Flint","state":"Michigan","latitude":43.0236,"longitude":-83.6921,"population":293893},{"city":"Winter Haven","state":"Florida","latitude":28.0118,"longitude":-81.7014,"population":293093},{"city":"Anchorage","state":"Alaska","latitude":61.1508,"longitude":-149.1091,"population":290674},{"city":"Lincoln","state":"Nebraska","latitude":40.8099,"longitude":-96.6784,"population":290531},{"city":"Concord","state":"North Carolina","latitude":35.3933,"longitude":-80.6369,"population":288783},{"city":"Jersey City","state":"New Jersey","latitude":40.7184,"longitude":-74.0686,"population":287899},{"city":"Springfield","state":"Missouri","latitude":37.1943,"longitude":-93.2916,"population":286280},{"city":"Plano","state":"Texas","latitude":33.0502,"longitude":-96.7486,"population":284948},{"city":"Shreveport","state":"Louisiana","latitude":32.4653,"longitude":-93.7955,"population":283536},{"city":"Davenport","state":"Iowa","latitude":41.5565,"longitude":-90.6053,"population":281333},{"city":"Lubbock","state":"Texas","latitude":33.5657,"longitude":-101.8879,"population":280890},{"city":"Lakeland","state":"Florida","latitude":28.0557,"longitude":-81.9545,"population":280346},{"city":"South Bend","state":"Indiana","latitude":41.6767,"longitude":-86.2696,"population":278061},{"city":"Chula Vista","state":"California","latitude":32.6281,"longitude":-117.0144,"population":276103},{"city":"Chandler","state":"Arizona","latitude":33.2825,"longitude":-111.8514,"population":275618},{"city":"Rockford","state":"Illinois","latitude":42.2596,"longitude":-89.064,"population":273237},{"city":"Reading","state":"Pennsylvania","latitude":40.34,"longitude":-75.9267,"population":272712},{"city":"Eugene","state":"Oregon","latitude":44.0564,"longitude":-123.1174,"population":270990},{"city":"Wilmington","state":"North Carolina","latitude":34.2099,"longitude":-77.8866,"population":268625},{"city":"Santa Clarita","state":"California","latitude":34.4175,"longitude":-118.4964,"population":268273},{"city":"Gilbert","state":"Arizona","latitude":33.31,"longitude":-111.7463,"population":267267},{"city":"Salem","state":"Oregon","latitude":44.9233,"longitude":-123.0244,"population":266420},{"city":"Killeen","state":"Texas","latitude":31.0753,"longitude":-97.7297,"population":265921},{"city":"Round Lake Beach","state":"Illinois","latitude":42.3791,"longitude":-88.0811,"population":264451},{"city":"Columbus","state":"Georgia","latitude":32.51,"longitude":-84.8771,"population":264282},{"city":"North Las Vegas","state":"Nevada","latitude":36.2883,"longitude":-115.0888,"population":264022},{"city":"Kennewick","state":"Washington","latitude":46.1978,"longitude":-119.1732,"population":259995},{"city":"St. Petersburg","state":"Florida","latitude":27.7931,"longitude":-82.6652,"population":259343},{"city":"Tallahassee","state":"Florida","latitude":30.4551,"longitude":-84.2527,"population":258696},{"city":"Laredo","state":"Texas","latitude":27.5625,"longitude":-99.4874,"population":255293},{"city":"Irving","state":"Texas","latitude":32.8583,"longitude":-96.9702,"population":254962},{"city":"Peoria","state":"Illinois","latitude":40.752,"longitude":-89.6154,"population":253467},{"city":"Montgomery","state":"Alabama","latitude":32.3482,"longitude":-86.2668,"population":251158},{"city":"Chesapeake","state":"Virginia","latitude":36.6778,"longitude":-76.3023,"population":249377},{"city":"Glendale","state":"Arizona","latitude":33.5791,"longitude":-112.2311,"population":248083},{"city":"York","state":"Pennsylvania","latitude":39.9651,"longitude":-76.7315,"population":247176},{"city":"Nashua","state":"New Hampshire","latitude":42.7491,"longitude":-71.491,"population":245209},{"city":"Garland","state":"Texas","latitude":32.91,"longitude":-96.6304,"population":244026},{"city":"Scottsdale","state":"Arizona","latitude":33.6872,"longitude":-111.8651,"population":240537},{"city":"Lafayette","state":"Louisiana","latitude":30.2082,"longitude":-92.0325,"population":237565},{"city":"Norfolk","state":"Virginia","latitude":36.8945,"longitude":-76.259,"population":236973},{"city":"Arlington","state":"Virginia","latitude":38.8786,"longitude":-77.1011,"population":235845},{"city":"Appleton","state":"Wisconsin","latitude":44.278,"longitude":-88.3892,"population":233947},{"city":"Aguadilla","state":"Puerto Rico","latitude":18.4382,"longitude":-67.1537,"population":228854},{"city":"Rock Hill","state":"South Carolina","latitude":34.9415,"longitude":-81.0241,"population":228811},{"city":"Fremont","state":"California","latitude":37.5265,"longitude":-121.9843,"population":228795},{"city":"Fargo","state":"North Dakota","latitude":46.8651,"longitude":-96.8292,"population":228364},{"city":"Gulfport","state":"Mississippi","latitude":30.4274,"longitude":-89.0704,"population":228022},{"city":"Bremerton","state":"Washington","latitude":47.5436,"longitude":-122.7121,"population":226805},{"city":"Green Bay","state":"Wisconsin","latitude":44.5148,"longitude":-87.9895,"population":225633},{"city":"Enterprise","state":"Nevada","latitude":36.0091,"longitude":-115.2278,"population":225461},{"city":"Hialeah","state":"Florida","latitude":25.8696,"longitude":-80.3045,"population":222996},{"city":"Deltona","state":"Florida","latitude":28.905,"longitude":-81.2137,"population":221137},{"city":"San Bernardino","state":"California","latitude":34.1416,"longitude":-117.2943,"population":221041},{"city":"Gainesville","state":"Florida","latitude":29.6804,"longitude":-82.3459,"population":220929},{"city":"Spring Valley","state":"Nevada","latitude":36.0952,"longitude":-115.2636,"population":220114},{"city":"Tacoma","state":"Washington","latitude":47.2431,"longitude":-122.4531,"population":219234},{"city":"Roanoke","state":"Virginia","latitude":37.2785,"longitude":-79.9581,"population":218533},{"city":"Brownsville","state":"Texas","latitude":25.9975,"longitude":-97.458,"population":215269},{"city":"College Station","state":"Texas","latitude":30.5852,"longitude":-96.2959,"population":213177},{"city":"Olympia","state":"Washington","latitude":47.0417,"longitude":-122.8959,"population":210877},{"city":"Clarksville","state":"Tennessee","latitude":36.5692,"longitude":-87.3413,"population":210551},{"city":"Yonkers","state":"New York","latitude":40.9466,"longitude":-73.8673,"population":209780},{"city":"Moreno Valley","state":"California","latitude":33.9244,"longitude":-117.2045,"population":209578},{"city":"Thousand Oaks","state":"California","latitude":34.1914,"longitude":-118.8756,"population":209570},{"city":"Portland","state":"Maine","latitude":43.6773,"longitude":-70.2715,"population":209491},{"city":"Fontana","state":"California","latitude":34.0968,"longitude":-117.4599,"population":209279},{"city":"Hickory","state":"North Carolina","latitude":35.741,"longitude":-81.3223,"population":206008},{"city":"Amarillo","state":"Texas","latitude":35.1984,"longitude":-101.8316,"population":205903},{"city":"Sioux Falls","state":"South Dakota","latitude":43.5396,"longitude":-96.7311,"population":204484},{"city":"Evansville","state":"Indiana","latitude":37.9881,"longitude":-87.5341,"population":203661},{"city":"Huntington","state":"West Virginia","latitude":38.4109,"longitude":-82.4345,"population":202754},{"city":"Waterbury","state":"Connecticut","latitude":41.5582,"longitude":-73.0361,"population":202422},{"city":"Frisco","state":"Texas","latitude":33.156,"longitude":-96.8216,"population":202075},{"city":"Lorain","state":"Ohio","latitude":41.4409,"longitude":-82.184,"population":201808},{"city":"Kalamazoo","state":"Michigan","latitude":42.2749,"longitude":-85.5882,"population":200838},{"city":"Galveston","state":"Texas","latitude":29.2484,"longitude":-94.8913,"population":200451},{"city":"Spartanburg","state":"South Carolina","latitude":34.9442,"longitude":-81.9251,"population":200000},{"city":"Santa Barbara","state":"California","latitude":34.4285,"longitude":-119.7202,"population":199023},{"city":"Sunrise Manor","state":"Nevada","latitude":36.1783,"longitude":-115.0487,"population":198325},{"city":"Huntington Beach","state":"California","latitude":33.696,"longitude":-118.0018,"population":197481},{"city":"Grand Prairie","state":"Texas","latitude":32.6871,"longitude":-97.0208,"population":197279},{"city":"Overland Park","state":"Kansas","latitude":38.887,"longitude":-94.687,"population":196676},{"city":"McKinney","state":"Texas","latitude":33.2016,"longitude":-96.667,"population":196160},{"city":"Waco","state":"Texas","latitude":31.5599,"longitude":-97.1882,"population":195709},{"city":"Hagerstown","state":"Maryland","latitude":39.6401,"longitude":-77.7217,"population":195261},{"city":"Glendale","state":"California","latitude":34.1819,"longitude":-118.2468,"population":194512},{"city":"Nampa","state":"Idaho","latitude":43.5844,"longitude":-116.5638,"population":193935},{"city":"Peoria","state":"Arizona","latitude":33.7843,"longitude":-112.2989,"population":191292},{"city":"Cedar Rapids","state":"Iowa","latitude":41.9662,"longitude":-91.6783,"population":191104},{"city":"Vancouver","state":"Washington","latitude":45.6366,"longitude":-122.5967,"population":190700},{"city":"Paradise","state":"Nevada","latitude":36.0872,"longitude":-115.1355,"population":189733},{"city":"Ocala","state":"Florida","latitude":29.178,"longitude":-82.1511,"population":186840},{"city":"Erie","state":"Pennsylvania","latitude":42.1167,"longitude":-80.0733,"population":185556},{"city":"Newport News","state":"Virginia","latitude":37.1051,"longitude":-76.5185,"population":185118},{"city":"Frederick","state":"Maryland","latitude":39.4337,"longitude":-77.4141,"population":184991},{"city":"Murfreesboro","state":"Tennessee","latitude":35.849,"longitude":-86.4121,"population":184763},{"city":"Fort Lauderdale","state":"Florida","latitude":26.1412,"longitude":-80.1464,"population":182673},{"city":"Aurora","state":"Illinois","latitude":41.7638,"longitude":-88.2902,"population":181405},{"city":"Tempe","state":"Arizona","latitude":33.3881,"longitude":-111.9319,"population":181005},{"city":"Danbury","state":"Connecticut","latitude":41.4015,"longitude":-73.4709,"population":180143},{"city":"Spring Hill","state":"Florida","latitude":28.4798,"longitude":-82.53,"population":178833},{"city":"Gastonia","state":"North Carolina","latitude":35.2494,"longitude":-81.1854,"population":178220},{"city":"Salinas","state":"California","latitude":36.6883,"longitude":-121.6317,"population":177410},{"city":"Fredericksburg","state":"Virginia","latitude":38.2992,"longitude":-77.4872,"population":176791},{"city":"Ontario","state":"California","latitude":34.0393,"longitude":-117.6064,"population":176326},{"city":"Elk Grove","state":"California","latitude":38.4161,"longitude":-121.3842,"population":176105},{"city":"Gainesville","state":"Georgia","latitude":34.2902,"longitude":-83.8294,"population":175569},{"city":"Cary","state":"North Carolina","latitude":35.7819,"longitude":-78.8195,"population":174880},{"city":"Rancho Cucamonga","state":"California","latitude":34.1247,"longitude":-117.5667,"population":174696},{"city":"Oceanside","state":"California","latitude":33.2247,"longitude":-117.3083,"population":173722},{"city":"Garden Grove","state":"California","latitude":33.7787,"longitude":-117.9601,"population":171637},{"city":"Lancaster","state":"California","latitude":34.6935,"longitude":-118.1753,"population":171465},{"city":"Hemet","state":"California","latitude":33.7341,"longitude":-116.9969,"population":170621},{"city":"Pembroke Pines","state":"Florida","latitude":26.0128,"longitude":-80.3382,"population":170472},{"city":"Panama City","state":"Florida","latitude":30.1995,"longitude":-85.6003,"population":169810},{"city":"Vallejo","state":"California","latitude":38.1125,"longitude":-122.2342,"population":169541},{"city":"Manchester","state":"New Hampshire","latitude":42.9848,"longitude":-71.4447,"population":169097},{"city":"Medford","state":"Oregon","latitude":42.3372,"longitude":-122.854,"population":168959},{"city":"Bayamón","state":"Puerto Rico","latitude":18.3794,"longitude":-66.1635,"population":168698},{"city":"Mauldin","state":"South Carolina","latitude":34.7821,"longitude":-82.3032,"population":168313},{"city":"Santa Cruz","state":"California","latitude":36.9789,"longitude":-122.0346,"population":167835},{"city":"Palmdale","state":"California","latitude":34.5944,"longitude":-118.1057,"population":166895},{"city":"Norwich","state":"Connecticut","latitude":41.5495,"longitude":-72.0882,"population":166885},{"city":"Muskegon","state":"Michigan","latitude":43.2281,"longitude":-86.2562,"population":166847},{"city":"Leesburg","state":"Florida","latitude":28.7672,"longitude":-81.8962,"population":166200},{"city":"High Point","state":"North Carolina","latitude":35.991,"longitude":-79.9937,"population":164836},{"city":"Tuscaloosa","state":"Alabama","latitude":33.2348,"longitude":-87.5268,"population":164414},{"city":"Visalia","state":"California","latitude":36.3276,"longitude":-119.3269,"population":163681},{"city":"Marysville","state":"Washington","latitude":48.0809,"longitude":-122.1561,"population":162664},{"city":"Merced","state":"California","latitude":37.3057,"longitude":-120.4779,"population":160638},{"city":"Hayward","state":"California","latitude":37.6328,"longitude":-122.0766,"population":160602},{"city":"Lafayette","state":"Indiana","latitude":40.3991,"longitude":-86.8593,"population":160543},{"city":"Springfield","state":"Illinois","latitude":39.7709,"longitude":-89.654,"population":159671},{"city":"Corona","state":"California","latitude":33.8616,"longitude":-117.5649,"population":158346},{"city":"Paterson","state":"New Jersey","latitude":40.9147,"longitude":-74.1624,"population":157864},{"city":"Alexandria","state":"Virginia","latitude":38.8185,"longitude":-77.0861,"population":157594},{"city":"Macon","state":"Georgia","latitude":32.8065,"longitude":-83.6974,"population":156554},{"city":"Binghamton","state":"New York","latitude":42.1014,"longitude":-75.9093,"population":156375},{"city":"Lakewood","state":"Colorado","latitude":39.6977,"longitude":-105.1172,"population":156149},{"city":"Kansas City","state":"Kansas","latitude":39.1235,"longitude":-94.7443,"population":155438},{"city":"Odessa","state":"Texas","latitude":31.8801,"longitude":-102.3448,"population":155039},{"city":"Sunnyvale","state":"California","latitude":37.3836,"longitude":-122.0255,"population":154573},{"city":"New Bedford","state":"Massachusetts","latitude":41.6697,"longitude":-70.9428,"population":153701},{"city":"Hollywood","state":"Florida","latitude":26.0293,"longitude":-80.1679,"population":152764},{"city":"South Lyon","state":"Michigan","latitude":42.4614,"longitude":-83.6526,"population":152132},{"city":"Escondido","state":"California","latitude":33.1348,"longitude":-117.0723,"population":151114},{"city":"Lake Charles","state":"Louisiana","latitude":30.201,"longitude":-93.2111,"population":151109},{"city":"Pasadena","state":"Texas","latitude":29.6575,"longitude":-95.1498,"population":150620},{"city":"Bellevue","state":"Washington","latitude":47.5951,"longitude":-122.1535,"population":150606},{"city":"Joliet","state":"Illinois","latitude":41.5188,"longitude":-88.1499,"population":150221},{"city":"Champaign","state":"Illinois","latitude":40.1142,"longitude":-88.2737,"population":150179},{"city":"Pomona","state":"California","latitude":34.0585,"longitude":-117.7626,"population":149831},{"city":"Fairfield","state":"California","latitude":38.2583,"longitude":-122.0335,"population":149635},{"city":"Mesquite","state":"Texas","latitude":32.7602,"longitude":-96.5865,"population":149439},{"city":"Elkhart","state":"Indiana","latitude":41.6916,"longitude":-85.9627,"population":149423},{"city":"Naperville","state":"Illinois","latitude":41.748,"longitude":-88.1659,"population":149089},{"city":"St. George","state":"Utah","latitude":37.0758,"longitude":-113.5752,"population":148895},{"city":"Roseville","state":"California","latitude":38.7703,"longitude":-121.3196,"population":148879},{"city":"Topeka","state":"Kansas","latitude":39.0346,"longitude":-95.6955,"population":148185},{"city":"Burlington","state":"North Carolina","latitude":36.076,"longitude":-79.4685,"population":147415},{"city":"Warner Robins","state":"Georgia","latitude":32.5961,"longitude":-83.6527,"population":146790},{"city":"Surprise","state":"Arizona","latitude":33.6815,"longitude":-112.4515,"population":145591},{"city":"Torrance","state":"California","latitude":33.8346,"longitude":-118.3416,"population":145454},{"city":"Santa Maria","state":"California","latitude":34.9333,"longitude":-120.4431,"population":143647},{"city":"Athens","state":"Georgia","latitude":33.9508,"longitude":-83.3689,"population":143173},{"city":"Houma","state":"Louisiana","latitude":29.58,"longitude":-90.7059,"population":143160},{"city":"Columbia","state":"Missouri","latitude":38.9472,"longitude":-92.3268,"population":142637},{"city":"Fullerton","state":"California","latitude":33.8841,"longitude":-117.9279,"population":142280},{"city":"Olathe","state":"Kansas","latitude":38.8833,"longitude":-94.82,"population":142114},{"city":"Thornton","state":"Colorado","latitude":39.9197,"longitude":-104.9438,"population":141799},{"city":"Greeley","state":"Colorado","latitude":40.4152,"longitude":-104.7706,"population":140984},{"city":"Beaumont","state":"Texas","latitude":30.0849,"longitude":-94.1451,"population":140930},{"city":"Las Cruces","state":"New Mexico","latitude":32.3265,"longitude":-106.7893,"population":140915},{"city":"Midland","state":"Texas","latitude":32.0243,"longitude":-102.1147,"population":140171},{"city":"Metairie","state":"Louisiana","latitude":29.9977,"longitude":-90.178,"population":140046},{"city":"Carolina","state":"Puerto Rico","latitude":18.4054,"longitude":-65.9792,"population":139201},{"city":"West Valley City","state":"Utah","latitude":40.6886,"longitude":-112.0123,"population":138868},{"city":"Orange","state":"California","latitude":33.8038,"longitude":-117.8218,"population":138728},{"city":"Warren","state":"Michigan","latitude":42.4934,"longitude":-83.027,"population":138588},{"city":"Grand Junction","state":"Colorado","latitude":39.0877,"longitude":-108.5673,"population":138416},{"city":"Tyler","state":"Texas","latitude":32.3184,"longitude":-95.3062,"population":138024},{"city":"Pasadena","state":"California","latitude":34.1597,"longitude":-118.139,"population":137554},{"city":"Hampton","state":"Virginia","latitude":37.0551,"longitude":-76.363,"population":137217},{"city":"Bloomington","state":"Illinois","latitude":40.4757,"longitude":-88.9703,"population":136524},{"city":"Elizabeth","state":"New Jersey","latitude":40.6658,"longitude":-74.1913,"population":135665},{"city":"Stamford","state":"Connecticut","latitude":41.1039,"longitude":-73.5585,"population":135413},{"city":"Yuma","state":"Arizona","latitude":32.5995,"longitude":-114.5491,"population":135389},{"city":"Kent","state":"Washington","latitude":47.3887,"longitude":-122.2128,"population":135169},{"city":"Miramar","state":"Florida","latitude":25.9773,"longitude":-80.3351,"population":135158},{"city":"Coeur d'Alene","state":"Idaho","latitude":47.704,"longitude":-116.7936,"population":134503},{"city":"Coral Springs","state":"Florida","latitude":26.2702,"longitude":-80.2591,"population":133801},{"city":"Sterling Heights","state":"Michigan","latitude":42.5809,"longitude":-83.0305,"population":133744},{"city":"Yuba City","state":"California","latitude":39.1357,"longitude":-121.6383,"population":133106},{"city":"Yakima","state":"Washington","latitude":46.5923,"longitude":-120.5496,"population":132354},{"city":"Carrollton","state":"Texas","latitude":32.989,"longitude":-96.8999,"population":132284},{"city":"Racine","state":"Wisconsin","latitude":42.7274,"longitude":-87.8135,"population":132006},{"city":"Johnson City","state":"Tennessee","latitude":36.3406,"longitude":-82.3806,"population":131718},{"city":"Billings","state":"Montana","latitude":45.7891,"longitude":-108.5526,"population":131519},{"city":"Iowa City","state":"Iowa","latitude":41.6559,"longitude":-91.5303,"population":130736},{"city":"Dover","state":"Delaware","latitude":39.161,"longitude":-75.5202,"population":130186},{"city":"Bellingham","state":"Washington","latitude":48.7548,"longitude":-122.469,"population":129880},{"city":"Charleston","state":"West Virginia","latitude":38.3484,"longitude":-81.6322,"population":129754},{"city":"Lynchburg","state":"Virginia","latitude":37.4003,"longitude":-79.1909,"population":128849},{"city":"Santa Clara","state":"California","latitude":37.3646,"longitude":-121.968,"population":128058},{"city":"Norman","state":"Oklahoma","latitude":35.2335,"longitude":-97.3471,"population":127701},{"city":"Greenville","state":"North Carolina","latitude":35.5943,"longitude":-77.376,"population":127574},{"city":"Simi Valley","state":"California","latitude":34.2663,"longitude":-118.749,"population":127568},{"city":"Fort Smith","state":"Arkansas","latitude":35.3495,"longitude":-94.3695,"population":126452},{"city":"Abilene","state":"Texas","latitude":32.4543,"longitude":-99.7384,"population":126356},{"city":"Arecibo","state":"Puerto Rico","latitude":18.4491,"longitude":-66.7387,"population":125727},{"city":"Lewisville","state":"Texas","latitude":33.0454,"longitude":-96.9815,"population":125028},{"city":"Pearland","state":"Texas","latitude":29.5581,"longitude":-95.3218,"population":124478},{"city":"Lehigh Acres","state":"Florida","latitude":26.612,"longitude":-81.6388,"population":124440},{"city":"Kenosha","state":"Wisconsin","latitude":42.5865,"longitude":-87.8773,"population":124297},{"city":"Seaside","state":"California","latitude":36.6224,"longitude":-121.8199,"population":123421},{"city":"Burlington","state":"Vermont","latitude":44.4876,"longitude":-73.2316,"population":123307},{"city":"Arvada","state":"Colorado","latitude":39.832,"longitude":-105.151,"population":123066},{"city":"Waldorf","state":"Maryland","latitude":38.6085,"longitude":-76.9194,"population":122310},{"city":"Independence","state":"Missouri","latitude":39.0871,"longitude":-94.3501,"population":122218},{"city":"Rochester","state":"Minnesota","latitude":44.0154,"longitude":-92.478,"population":121870},{"city":"Logan","state":"Utah","latitude":41.7399,"longitude":-111.8422,"population":121666},{"city":"Harlingen","state":"Texas","latitude":26.1916,"longitude":-97.6977,"population":121441},{"city":"Berkeley","state":"California","latitude":37.8722,"longitude":-122.276,"population":121385},{"city":"Clovis","state":"California","latitude":36.8278,"longitude":-119.683,"population":120607},{"city":"Round Rock","state":"Texas","latitude":30.527,"longitude":-97.6642,"population":120465},{"city":"Pueblo","state":"Colorado","latitude":38.2701,"longitude":-104.6114,"population":120380},{"city":"Temple","state":"Texas","latitude":31.1068,"longitude":-97.3891,"population":120240},{"city":"Meridian","state":"Idaho","latitude":43.6116,"longitude":-116.3977,"population":119872},{"city":"Duluth","state":"Minnesota","latitude":46.7756,"longitude":-92.1393,"population":118574},{"city":"The Woodlands","state":"Texas","latitude":30.1738,"longitude":-95.5134,"population":118402},{"city":"Boulder","state":"Colorado","latitude":40.0248,"longitude":-105.2524,"population":118090},{"city":"Richardson","state":"Texas","latitude":32.9716,"longitude":-96.7093,"population":118063},{"city":"Cambridge","state":"Massachusetts","latitude":42.3759,"longitude":-71.1185,"population":117962},{"city":"West Palm Beach","state":"Florida","latitude":26.7469,"longitude":-80.132,"population":117588},{"city":"Port Arthur","state":"Texas","latitude":29.8554,"longitude":-93.9264,"population":117348},{"city":"East Los Angeles","state":"California","latitude":34.0326,"longitude":-118.1691,"population":117222},{"city":"Redding","state":"California","latitude":40.5698,"longitude":-122.365,"population":117163},{"city":"Clearwater","state":"Florida","latitude":27.979,"longitude":-82.7623,"population":116984},{"city":"Monroe","state":"Louisiana","latitude":32.5185,"longitude":-92.0774,"population":116927},{"city":"Utica","state":"New York","latitude":43.0962,"longitude":-75.2261,"population":116766},{"city":"St. Cloud","state":"Minnesota","latitude":45.534,"longitude":-94.1718,"population":116649},{"city":"Mandeville","state":"Louisiana","latitude":30.3751,"longitude":-90.0904,"population":116649},{"city":"West Jordan","state":"Utah","latitude":40.6024,"longitude":-112.0008,"population":116383},{"city":"North Charleston","state":"South Carolina","latitude":32.9067,"longitude":-80.0722,"population":115755},{"city":"Richmond","state":"California","latitude":37.9477,"longitude":-122.3389,"population":115619},{"city":"Westminster","state":"Colorado","latitude":39.8837,"longitude":-105.0624,"population":115502},{"city":"Saginaw","state":"Michigan","latitude":43.4199,"longitude":-83.9501,"population":115442},{"city":"Kailua","state":"Hawaii","latitude":21.392,"longitude":-157.7396,"population":115264},{"city":"Brandon","state":"Florida","latitude":27.9367,"longitude":-82.3,"population":114923},{"city":"Ponce","state":"Puerto Rico","latitude":18.0127,"longitude":-66.6212,"population":114901},{"city":"Carlsbad","state":"California","latitude":33.1246,"longitude":-117.2834,"population":114745},{"city":"Lowell","state":"Massachusetts","latitude":42.6389,"longitude":-71.3217,"population":114737},{"city":"Broken Arrow","state":"Oklahoma","latitude":36.038,"longitude":-95.7806,"population":114237},{"city":"Elgin","state":"Illinois","latitude":42.0383,"longitude":-88.324,"population":114190},{"city":"Gresham","state":"Oregon","latitude":45.5021,"longitude":-122.4413,"population":113525},{"city":"League City","state":"Texas","latitude":29.4874,"longitude":-95.1087,"population":113469},{"city":"Downey","state":"California","latitude":33.9379,"longitude":-118.1311,"population":113052},{"city":"Waterloo","state":"Iowa","latitude":42.4918,"longitude":-92.3522,"population":112333},{"city":"Murrieta","state":"California","latitude":33.5719,"longitude":-117.1909,"population":111899},{"city":"Leominster","state":"Massachusetts","latitude":42.5209,"longitude":-71.7717,"population":111856},{"city":"Longview","state":"Texas","latitude":32.5193,"longitude":-94.7622,"population":111855},{"city":"Jacksonville","state":"North Carolina","latitude":34.7289,"longitude":-77.3941,"population":111830},{"city":"Pompano Beach","state":"Florida","latitude":26.2428,"longitude":-80.1312,"population":111790},{"city":"Bend","state":"Oregon","latitude":44.0563,"longitude":-121.3095,"population":111774},{"city":"Miami Gardens","state":"Florida","latitude":25.9433,"longitude":-80.2426,"population":111618},{"city":"Costa Mesa","state":"California","latitude":33.6667,"longitude":-117.9135,"population":111490},{"city":"Sioux City","state":"Iowa","latitude":42.4959,"longitude":-96.3901,"population":111361},{"city":"Everett","state":"Washington","latitude":47.9525,"longitude":-122.1669,"population":110847},{"city":"Gilroy","state":"California","latitude":37.0046,"longitude":-121.5854,"population":110720},{"city":"San Buenaventura","state":"California","latitude":34.2741,"longitude":-119.2314,"population":110358},{"city":"Temecula","state":"California","latitude":33.4928,"longitude":-117.1315,"population":110114},{"city":"Sugar Land","state":"Texas","latitude":29.5935,"longitude":-95.6358,"population":110077},{"city":"Chico","state":"California","latitude":39.7578,"longitude":-121.8161,"population":110001},{"city":"Eau Claire","state":"Wisconsin","latitude":44.8197,"longitude":-91.4948,"population":109491},{"city":"El Monte","state":"California","latitude":34.0739,"longitude":-118.0291,"population":108682},{"city":"Idaho Falls","state":"Idaho","latitude":43.4871,"longitude":-112.0362,"population":108544},{"city":"Dearborn","state":"Michigan","latitude":42.3127,"longitude":-83.213,"population":108414},{"city":"Bloomington","state":"Indiana","latitude":39.1637,"longitude":-86.5257,"population":108387},{"city":"West Covina","state":"California","latitude":34.0555,"longitude":-117.9113,"population":108173},{"city":"Sparks","state":"Nevada","latitude":39.5736,"longitude":-119.7161,"population":108025},{"city":"South Fulton","state":"Georgia","latitude":33.6273,"longitude":-84.58,"population":107865},{"city":"Centennial","state":"Colorado","latitude":39.5926,"longitude":-104.8673,"population":107702},{"city":"Sandy Springs","state":"Georgia","latitude":33.9366,"longitude":-84.3703,"population":107221},{"city":"Inglewood","state":"California","latitude":33.9566,"longitude":-118.3444,"population":106806},{"city":"Hillsboro","state":"Oregon","latitude":45.5273,"longitude":-122.936,"population":106612},{"city":"Columbia","state":"Maryland","latitude":39.2004,"longitude":-76.859,"population":106600},{"city":"Burbank","state":"California","latitude":34.1879,"longitude":-118.3235,"population":106389},{"city":"Davie","state":"Florida","latitude":26.0789,"longitude":-80.287,"population":105821},{"city":"El Cajon","state":"California","latitude":32.8017,"longitude":-116.9604,"population":105721},{"city":"Jurupa Valley","state":"California","latitude":34.001,"longitude":-117.4706,"population":105672},{"city":"Allen","state":"Texas","latitude":33.1088,"longitude":-96.6735,"population":105444},{"city":"Auburn","state":"Alabama","latitude":32.6087,"longitude":-85.4903,"population":105386},{"city":"Renton","state":"Washington","latitude":47.4784,"longitude":-122.1918,"population":105355},{"city":"Holland","state":"Michigan","latitude":42.7677,"longitude":-86.0984,"population":105134},{"city":"Brockton","state":"Massachusetts","latitude":42.0821,"longitude":-71.0242,"population":104713},{"city":"Rio Rancho","state":"New Mexico","latitude":35.2873,"longitude":-106.6982,"population":104351},{"city":"San Mateo","state":"California","latitude":37.5522,"longitude":-122.3121,"population":104165},{"city":"Rialto","state":"California","latitude":34.1175,"longitude":-117.3892,"population":103873},{"city":"Spokane Valley","state":"Washington","latitude":47.6626,"longitude":-117.2346,"population":103761},{"city":"Charlottesville","state":"Virginia","latitude":38.0375,"longitude":-78.4855,"population":103760},{"city":"Menifee","state":"California","latitude":33.6909,"longitude":-117.1849,"population":103680},{"city":"Daly City","state":"California","latitude":37.6862,"longitude":-122.4685,"population":103648},{"city":"Wichita Falls","state":"Texas","latitude":33.9072,"longitude":-98.5291,"population":102482},{"city":"Riverview","state":"Florida","latitude":27.8227,"longitude":-82.3023,"population":102467},{"city":"Norwalk","state":"California","latitude":33.9069,"longitude":-118.0829,"population":101893},{"city":"Lee's Summit","state":"Missouri","latitude":38.9171,"longitude":-94.3816,"population":101728},{"city":"Longmont","state":"Colorado","latitude":40.1686,"longitude":-105.1005,"population":101642},{"city":"Vacaville","state":"California","latitude":38.3587,"longitude":-121.9673,"population":101631},{"city":"Highlands Ranch","state":"Colorado","latitude":39.5419,"longitude":-104.9708,"population":101514},{"city":"Kingsport","state":"Tennessee","latitude":36.5224,"longitude":-82.5454,"population":101323},{"city":"San Tan Valley","state":"Arizona","latitude":33.1786,"longitude":-111.5629,"population":101207},{"city":"Quincy","state":"Massachusetts","latitude":42.2506,"longitude":-71.0187,"population":100981},{"city":"Edinburg","state":"Texas","latitude":26.3196,"longitude":-98.1597,"population":100964},{"city":"Lynn","state":"Massachusetts","latitude":42.4781,"longitude":-70.9664,"population":100653},{"city":"San Angelo","state":"Texas","latitude":31.4424,"longitude":-100.4504,"population":100057},{"city":"Hesperia","state":"California","latitude":34.3975,"longitude":-117.3147,"population":99878},{"city":"Bowling Green","state":"Kentucky","latitude":36.9716,"longitude":-86.4378,"population":99669},{"city":"Federal Way","state":"Washington","latitude":47.3091,"longitude":-122.3358,"population":99614},{"city":"Carmel","state":"Indiana","latitude":39.965,"longitude":-86.146,"population":99453},{"city":"Bismarck","state":"North Dakota","latitude":46.8143,"longitude":-100.7694,"population":99433},{"city":"Fishers","state":"Indiana","latitude":39.9588,"longitude":-85.9659,"population":99041},{"city":"Lafayette","state":"Colorado","latitude":39.9946,"longitude":-105.0998,"population":98889},{"city":"Vista","state":"California","latitude":33.1896,"longitude":-117.2386,"population":98392},{"city":"Boca Raton","state":"Florida","latitude":26.3752,"longitude":-80.108,"population":97980},{"city":"St. Augustine","state":"Florida","latitude":29.8976,"longitude":-81.31,"population":97703},{"city":"Beaverton","state":"Oregon","latitude":45.4779,"longitude":-122.8168,"population":97554},{"city":"Goodyear","state":"Arizona","latitude":33.2614,"longitude":-112.3622,"population":97542},{"city":"Portsmouth","state":"Virginia","latitude":36.8468,"longitude":-76.354,"population":97384},{"city":"Orem","state":"Utah","latitude":40.2981,"longitude":-111.6994,"population":97100},{"city":"Sunrise","state":"Florida","latitude":26.1547,"longitude":-80.2997,"population":96510},{"city":"Portsmouth","state":"New Hampshire","latitude":43.058,"longitude":-70.7826,"population":96146},{"city":"Arden-Arcade","state":"California","latitude":38.6017,"longitude":-121.3845,"population":96076},{"city":"Lawrence","state":"Kansas","latitude":38.9597,"longitude":-95.2642,"population":96061},{"city":"Sandy","state":"Utah","latitude":40.5709,"longitude":-111.8506,"population":95635},{"city":"Slidell","state":"Louisiana","latitude":30.2887,"longitude":-89.7828,"population":95528},{"city":"Buckeye","state":"Arizona","latitude":33.4314,"longitude":-112.6429,"population":95042},{"city":"Livonia","state":"Michigan","latitude":42.3972,"longitude":-83.3733,"population":94928},{"city":"Williamsburg","state":"Virginia","latitude":37.2693,"longitude":-76.7076,"population":94892},{"city":"Suffolk","state":"Virginia","latitude":36.6953,"longitude":-76.6398,"population":94856},{"city":"Compton","state":"California","latitude":33.893,"longitude":-118.2274,"population":94822},{"city":"La Crosse","state":"Wisconsin","latitude":43.8241,"longitude":-91.2268,"population":94627},{"city":"Edmond","state":"Oklahoma","latitude":35.6689,"longitude":-97.416,"population":94503},{"city":"Carson","state":"California","latitude":33.8374,"longitude":-118.2559,"population":94475},{"city":"San Marcos","state":"California","latitude":33.135,"longitude":-117.1743,"population":94360},{"city":"Tracy","state":"California","latitude":37.7269,"longitude":-121.4523,"population":94027},{"city":"Prescott Valley","state":"Arizona","latitude":34.598,"longitude":-112.3185,"population":93923},{"city":"Middletown","state":"Ohio","latitude":39.5033,"longitude":-84.3659,"population":93870},{"city":"Fall River","state":"Massachusetts","latitude":41.7136,"longitude":-71.1015,"population":93638},{"city":"San Germán","state":"Puerto Rico","latitude":18.0827,"longitude":-67.046,"population":93549},{"city":"Santa Fe","state":"New Mexico","latitude":35.6619,"longitude":-105.9819,"population":93165},{"city":"Plantation","state":"Florida","latitude":26.1259,"longitude":-80.2617,"population":93130},{"city":"Mayagüez","state":"Puerto Rico","latitude":18.2003,"longitude":-67.1397,"population":93079},{"city":"New Braunfels","state":"Texas","latitude":29.6994,"longitude":-98.1148,"population":92993},{"city":"Roswell","state":"Georgia","latitude":34.0391,"longitude":-84.3513,"population":92770},{"city":"Conroe","state":"Texas","latitude":30.3238,"longitude":-95.4824,"population":92475},{"city":"South Gate","state":"California","latitude":33.9447,"longitude":-118.1926,"population":92381},{"city":"Santa Monica","state":"California","latitude":34.0235,"longitude":-118.481,"population":92168},{"city":"Kirkland","state":"Washington","latitude":47.697,"longitude":-122.2057,"population":92015},{"city":"Hoover","state":"Alabama","latitude":33.3763,"longitude":-86.8068,"population":91995},{"city":"O'Fallon","state":"Missouri","latitude":38.785,"longitude":-90.7175,"population":91825},{"city":"Alafaya","state":"Florida","latitude":28.528,"longitude":-81.1868,"population":91531},{"city":"Palm Coast","state":"Florida","latitude":29.5389,"longitude":-81.2457,"population":91082},{"city":"Norwalk","state":"Connecticut","latitude":41.1144,"longitude":-73.4215,"population":91050},{"city":"Lawton","state":"Oklahoma","latitude":34.6175,"longitude":-98.4202,"population":91023},{"city":"Chino","state":"California","latitude":33.9836,"longitude":-117.6654,"population":91008},{"city":"Mount Pleasant","state":"South Carolina","latitude":32.8537,"longitude":-79.8203,"population":90945},{"city":"Manteca","state":"California","latitude":37.7927,"longitude":-121.2264,"population":90678},{"city":"Westminster","state":"California","latitude":33.7523,"longitude":-117.9938,"population":90638},{"city":"Florence","state":"South Carolina","latitude":34.178,"longitude":-79.7898,"population":90419},{"city":"Joplin","state":"Missouri","latitude":37.0757,"longitude":-94.5018,"population":90384},{"city":"Germantown","state":"Maryland","latitude":39.1755,"longitude":-77.2643,"population":90210},{"city":"San Leandro","state":"California","latitude":37.7074,"longitude":-122.1599,"population":89723},{"city":"Town 'n' Country","state":"Florida","latitude":28.0106,"longitude":-82.5763,"population":89456},{"city":"Clifton","state":"New Jersey","latitude":40.863,"longitude":-74.1575,"population":89451},{"city":"Waukegan","state":"Illinois","latitude":42.3698,"longitude":-87.8716,"population":89435},{"city":"Bloomington","state":"Minnesota","latitude":44.8306,"longitude":-93.3151,"population":89244},{"city":"Avondale","state":"Arizona","latitude":33.3873,"longitude":-112.3235,"population":89214},{"city":"Atascocita","state":"Texas","latitude":29.9777,"longitude":-95.1953,"population":89121},{"city":"Missoula","state":"Montana","latitude":46.8751,"longitude":-114.0214,"population":88780},{"city":"Fort Myers","state":"Florida","latitude":26.6194,"longitude":-81.8302,"population":88699},{"city":"Newton","state":"Massachusetts","latitude":42.3316,"longitude":-71.2085,"population":88453},{"city":"Lawrence","state":"Massachusetts","latitude":42.7002,"longitude":-71.1626,"population":88067},{"city":"Muncie","state":"Indiana","latitude":40.1989,"longitude":-85.395,"population":88061},{"city":"Rapid City","state":"South Dakota","latitude":44.0716,"longitude":-103.2204,"population":87826},{"city":"Troy","state":"Michigan","latitude":42.5817,"longitude":-83.1457,"population":87170},{"city":"Livermore","state":"California","latitude":37.6868,"longitude":-121.7607,"population":87154},{"city":"Citrus Heights","state":"California","latitude":38.6948,"longitude":-121.288,"population":87127},{"city":"Hawthorne","state":"California","latitude":33.9147,"longitude":-118.3476,"population":86978},{"city":"Winchester","state":"Virginia","latitude":39.1735,"longitude":-78.1746,"population":86813},{"city":"Springdale","state":"Arkansas","latitude":36.1901,"longitude":-94.1574,"population":86705},{"city":"Whittier","state":"California","latitude":33.9678,"longitude":-118.0188,"population":86459},{"city":"Deerfield Beach","state":"Florida","latitude":26.305,"longitude":-80.1277,"population":86455},{"city":"Decatur","state":"Illinois","latitude":39.8557,"longitude":-88.9342,"population":86231},{"city":"San Ramon","state":"California","latitude":37.7624,"longitude":-121.9365,"population":86119},{"city":"Vineland","state":"New Jersey","latitude":39.4653,"longitude":-74.9981,"population":86042},{"city":"Mission","state":"Texas","latitude":26.2039,"longitude":-98.3256,"population":85755},{"city":"Auburn","state":"Washington","latitude":47.3039,"longitude":-122.2108,"population":85623},{"city":"Lake Forest","state":"California","latitude":33.6605,"longitude":-117.6714,"population":85583},{"city":"Newport Beach","state":"California","latitude":33.6151,"longitude":-117.8668,"population":85159},{"city":"Melbourne","state":"Florida","latitude":28.1086,"longitude":-80.6627,"population":84982},{"city":"Brooklyn Park","state":"Minnesota","latitude":45.1112,"longitude":-93.3505,"population":84951},{"city":"Bryan","state":"Texas","latitude":30.665,"longitude":-96.3807,"population":84820},{"city":"Westland","state":"Michigan","latitude":42.3192,"longitude":-83.3805,"population":84806},{"city":"Napa","state":"California","latitude":38.2975,"longitude":-122.301,"population":84703},{"city":"Baytown","state":"Texas","latitude":29.7587,"longitude":-94.9671,"population":84449},{"city":"Cicero","state":"Illinois","latitude":41.8445,"longitude":-87.7593,"population":84189},{"city":"Anderson","state":"Indiana","latitude":40.0891,"longitude":-85.6892,"population":83875},{"city":"Franklin","state":"Tennessee","latitude":35.92,"longitude":-86.8516,"population":83630},{"city":"Farmington Hills","state":"Michigan","latitude":42.486,"longitude":-83.3771,"population":83562},{"city":"Buena Park","state":"California","latitude":33.8572,"longitude":-118.0046,"population":83542},{"city":"Albany","state":"Georgia","latitude":31.5776,"longitude":-84.1762,"population":83447},{"city":"Pine Hills","state":"Florida","latitude":28.5818,"longitude":-81.4692,"population":83221},{"city":"State College","state":"Pennsylvania","latitude":40.7909,"longitude":-77.8567,"population":83170},{"city":"Redwood City","state":"California","latitude":37.5025,"longitude":-122.2253,"population":83077},{"city":"Warwick","state":"Rhode Island","latitude":41.7062,"longitude":-71.4334,"population":82783},{"city":"Jackson","state":"Michigan","latitude":42.2431,"longitude":-84.4038,"population":82775},{"city":"Cranston","state":"Rhode Island","latitude":41.7658,"longitude":-71.4858,"population":82691},{"city":"Largo","state":"Florida","latitude":27.9088,"longitude":-82.7712,"population":82541},{"city":"Miami Beach","state":"Florida","latitude":25.8171,"longitude":-80.1396,"population":82400},{"city":"Alhambra","state":"California","latitude":34.084,"longitude":-118.1355,"population":82295},{"city":"Johns Creek","state":"Georgia","latitude":34.0333,"longitude":-84.2027,"population":82230},{"city":"Mountain View","state":"California","latitude":37.4001,"longitude":-122.0796,"population":82132},{"city":"Salisbury","state":"Maryland","latitude":38.3756,"longitude":-75.5865,"population":81921},{"city":"Morgantown","state":"West Virginia","latitude":39.6383,"longitude":-79.9464,"population":81912},{"city":"Silver Spring","state":"Maryland","latitude":39.0028,"longitude":-77.0207,"population":81808},{"city":"Layton","state":"Utah","latitude":41.077,"longitude":-111.962,"population":81726},{"city":"Springfield","state":"Ohio","latitude":39.93,"longitude":-83.7959,"population":81620},{"city":"Lakewood","state":"California","latitude":33.8471,"longitude":-118.1222,"population":81499},{"city":"Florence","state":"Alabama","latitude":34.8303,"longitude":-87.6655,"population":81268},{"city":"Folsom","state":"California","latitude":38.6668,"longitude":-121.1422,"population":81077},{"city":"Madera","state":"California","latitude":36.963,"longitude":-120.0778,"population":80937},{"city":"New Rochelle","state":"New York","latitude":40.9304,"longitude":-73.7836,"population":80828},{"city":"Parma","state":"Ohio","latitude":41.3843,"longitude":-81.7286,"population":80587},{"city":"Terre Haute","state":"Indiana","latitude":39.466,"longitude":-87.3751,"population":80567},{"city":"Somerville","state":"Massachusetts","latitude":42.3908,"longitude":-71.1014,"population":80464},{"city":"Flagstaff","state":"Arizona","latitude":35.1872,"longitude":-111.6194,"population":80167},{"city":"Boynton Beach","state":"Florida","latitude":26.5281,"longitude":-80.0811,"population":80068},{"city":"Homestead","state":"Florida","latitude":25.4665,"longitude":-80.4472,"population":79996},{"city":"Newark","state":"Ohio","latitude":40.0706,"longitude":-82.425,"population":79959},{"city":"Plymouth","state":"Minnesota","latitude":45.0225,"longitude":-93.4617,"population":79918},{"city":"Anniston","state":"Alabama","latitude":33.6712,"longitude":-85.8135,"population":79717},{"city":"Texarkana","state":"Texas","latitude":33.45,"longitude":-94.0847,"population":79570},{"city":"Tustin","state":"California","latitude":33.7311,"longitude":-117.8107,"population":79514},{"city":"Pharr","state":"Texas","latitude":26.1685,"longitude":-98.1904,"population":79434},{"city":"Port Huron","state":"Michigan","latitude":42.9821,"longitude":-82.4388,"population":79363},{"city":"Turlock","state":"California","latitude":37.5053,"longitude":-120.8588,"population":79301},{"city":"Rancho Cordova","state":"California","latitude":38.5737,"longitude":-121.2527,"population":79128},{"city":"The Villages","state":"Florida","latitude":28.9034,"longitude":-81.9887,"population":79108},{"city":"Milpitas","state":"California","latitude":37.4336,"longitude":-121.8921,"population":79092},{"city":"Perris","state":"California","latitude":33.7898,"longitude":-117.2233,"population":78881},{"city":"Upland","state":"California","latitude":34.1178,"longitude":-117.6604,"population":78847},{"city":"Alton","state":"Illinois","latitude":38.9037,"longitude":-90.152,"population":78729},{"city":"Pleasanton","state":"California","latitude":37.6663,"longitude":-121.8805,"population":78691},{"city":"Kendall","state":"Florida","latitude":25.6697,"longitude":-80.3556,"population":78402},{"city":"Jonesboro","state":"Arkansas","latitude":35.8212,"longitude":-90.6791,"population":78379},{"city":"Bellflower","state":"California","latitude":33.888,"longitude":-118.1271,"population":78352},{"city":"Battle Creek","state":"Michigan","latitude":42.2985,"longitude":-85.2296,"population":78338},{"city":"Chino Hills","state":"California","latitude":33.9508,"longitude":-117.7254,"population":78223},{"city":"Cheyenne","state":"Wyoming","latitude":41.135,"longitude":-104.7902,"population":78204},{"city":"Lebanon","state":"Pennsylvania","latitude":40.3412,"longitude":-76.4228,"population":78147},{"city":"Carmichael","state":"California","latitude":38.6318,"longitude":-121.3263,"population":78144},{"city":"South Jordan","state":"Utah","latitude":40.557,"longitude":-111.9784,"population":78118},{"city":"Davis","state":"California","latitude":38.5553,"longitude":-121.737,"population":77874},{"city":"Elizabethtown","state":"Kentucky","latitude":37.7031,"longitude":-85.8773,"population":77770},{"city":"Schaumburg","state":"Illinois","latitude":42.0308,"longitude":-88.0838,"population":77571},{"city":"Alameda","state":"California","latitude":37.7668,"longitude":-122.267,"population":77565},{"city":"Hammond","state":"Indiana","latitude":41.6168,"longitude":-87.4909,"population":77390},{"city":"Pasco","state":"Washington","latitude":46.2506,"longitude":-119.1305,"population":77274},{"city":"Evanston","state":"Illinois","latitude":42.0464,"longitude":-87.6943,"population":77181},{"city":"Lehi","state":"Utah","latitude":40.4136,"longitude":-111.8725,"population":77110},{"city":"Alexandria","state":"Louisiana","latitude":31.2923,"longitude":-92.4702,"population":77109},{"city":"North Port","state":"Florida","latitude":27.0576,"longitude":-82.1977,"population":76975},{"city":"Arlington Heights","state":"Illinois","latitude":42.0955,"longitude":-87.9826,"population":76794},{"city":"Camarillo","state":"California","latitude":34.223,"longitude":-119.0321,"population":76748},{"city":"Wyoming","state":"Michigan","latitude":42.8908,"longitude":-85.7066,"population":76732},{"city":"Flower Mound","state":"Texas","latitude":33.0343,"longitude":-97.1146,"population":76630},{"city":"Bethlehem","state":"Pennsylvania","latitude":40.6266,"longitude":-75.3679,"population":76555},{"city":"Hattiesburg","state":"Mississippi","latitude":31.3074,"longitude":-89.317,"population":76501},{"city":"Loveland","state":"Colorado","latitude":40.4166,"longitude":-105.0623,"population":76500},{"city":"Pittsburg","state":"California","latitude":38.0182,"longitude":-121.8965,"population":76419},{"city":"Cedar Park","state":"Texas","latitude":30.5105,"longitude":-97.8197,"population":76344},{"city":"Wenatchee","state":"Washington","latitude":47.436,"longitude":-120.3295,"population":76152},{"city":"Southfield","state":"Michigan","latitude":42.4765,"longitude":-83.2605,"population":76107},{"city":"Rochester Hills","state":"Michigan","latitude":42.6645,"longitude":-83.1563,"population":76041},{"city":"Hammond","state":"Louisiana","latitude":30.5061,"longitude":-90.4563,"population":76032},{"city":"Valdosta","state":"Georgia","latitude":30.8502,"longitude":-83.2788,"population":75919},{"city":"Owensboro","state":"Kentucky","latitude":37.7575,"longitude":-87.1172,"population":75644},{"city":"Apple Valley","state":"California","latitude":34.5352,"longitude":-117.2109,"population":75603},{"city":"Woodbury","state":"Minnesota","latitude":44.9057,"longitude":-92.923,"population":75549},{"city":"Pawtucket","state":"Rhode Island","latitude":41.8744,"longitude":-71.3743,"population":75176},{"city":"St. Joseph","state":"Missouri","latitude":39.7598,"longitude":-94.821,"population":75033},{"city":"Doral","state":"Florida","latitude":25.8152,"longitude":-80.3565,"population":74891},{"city":"Dover","state":"New Hampshire","latitude":43.1887,"longitude":-70.8845,"population":74554},{"city":"Missouri City","state":"Texas","latitude":29.563,"longitude":-95.5365,"population":74517},{"city":"Saratoga Springs","state":"New York","latitude":43.0674,"longitude":-73.7775,"population":74339},{"city":"Pocatello","state":"Idaho","latitude":42.8724,"longitude":-112.4647,"population":74284},{"city":"Oshkosh","state":"Wisconsin","latitude":44.0227,"longitude":-88.5619,"population":74251},{"city":"New Britain","state":"Connecticut","latitude":41.6759,"longitude":-72.7862,"population":74212},{"city":"Castle Rock","state":"Colorado","latitude":39.3763,"longitude":-104.8535,"population":74065},{"city":"Lauderhill","state":"Florida","latitude":26.1605,"longitude":-80.2241,"population":73987},{"city":"Broomfield","state":"Colorado","latitude":39.9542,"longitude":-105.0526,"population":73946},{"city":"Dale City","state":"Virginia","latitude":38.6473,"longitude":-77.3459,"population":73928},{"city":"Bolingbrook","state":"Illinois","latitude":41.6901,"longitude":-88.1021,"population":73755},{"city":"Redmond","state":"Washington","latitude":47.6763,"longitude":-122.1169,"population":73728},{"city":"Caguas","state":"Puerto Rico","latitude":18.2319,"longitude":-66.0388,"population":73713},{"city":"Mansfield","state":"Texas","latitude":32.569,"longitude":-97.1213,"population":73680},{"city":"Ellicott City","state":"Maryland","latitude":39.2774,"longitude":-76.8345,"population":73589},{"city":"Sheboygan","state":"Wisconsin","latitude":43.7403,"longitude":-87.7316,"population":73531},{"city":"Mansfield","state":"Ohio","latitude":40.7656,"longitude":-82.5275,"population":73448},{"city":"Glens Falls","state":"New York","latitude":43.3109,"longitude":-73.6458,"population":73424},{"city":"Daytona Beach","state":"Florida","latitude":29.1995,"longitude":-81.0982,"population":73329},{"city":"Lodi","state":"California","latitude":38.1218,"longitude":-121.2932,"population":73239},{"city":"Redlands","state":"California","latitude":34.0512,"longitude":-117.1712,"population":73234},{"city":"Harrisonburg","state":"Virginia","latitude":38.4362,"longitude":-78.8735,"population":73160},{"city":"Dothan","state":"Alabama","latitude":31.2336,"longitude":-85.407,"population":73037},{"city":"Cleveland","state":"Tennessee","latitude":35.1817,"longitude":-84.8707,"population":72870},{"city":"Jackson","state":"Tennessee","latitude":35.6538,"longitude":-88.8354,"population":72836},{"city":"Mount Vernon","state":"New York","latitude":40.9136,"longitude":-73.8291,"population":72817},{"city":"Centreville","state":"Virginia","latitude":38.839,"longitude":-77.4389,"population":72680},{"city":"Altoona","state":"Pennsylvania","latitude":40.5082,"longitude":-78.4007,"population":72348},{"city":"Framingham","state":"Massachusetts","latitude":42.3085,"longitude":-71.4368,"population":71805},{"city":"Camden","state":"New Jersey","latitude":39.9361,"longitude":-75.1073,"population":71799},{"city":"Georgetown","state":"Texas","latitude":30.666,"longitude":-97.6966,"population":71788},{"city":"Baldwin Park","state":"California","latitude":34.0829,"longitude":-117.9722,"population":71692},{"city":"Rocklin","state":"California","latitude":38.8075,"longitude":-121.2489,"population":71676},{"city":"Porterville","state":"California","latitude":36.0643,"longitude":-119.0338,"population":71669},{"city":"Tamarac","state":"Florida","latitude":26.2056,"longitude":-80.2539,"population":71578},{"city":"Glen Burnie","state":"Maryland","latitude":39.156,"longitude":-76.6071,"population":71427},{"city":"Blacksburg","state":"Virginia","latitude":37.23,"longitude":-80.4279,"population":71277},{"city":"Wausau","state":"Wisconsin","latitude":44.962,"longitude":-89.6459,"population":71236},{"city":"Sumter","state":"South Carolina","latitude":33.9392,"longitude":-80.393,"population":71234},{"city":"Janesville","state":"Wisconsin","latitude":42.6854,"longitude":-89.0135,"population":71202},{"city":"Brunswick","state":"Georgia","latitude":31.1449,"longitude":-81.4746,"population":71160},{"city":"Dublin","state":"California","latitude":37.7161,"longitude":-121.8963,"population":71068},{"city":"Wilmington","state":"Delaware","latitude":39.7415,"longitude":-75.5416,"population":71034},{"city":"Waukesha","state":"Wisconsin","latitude":43.0087,"longitude":-88.2464,"population":70945},{"city":"Fairbanks","state":"Alaska","latitude":64.8353,"longitude":-147.6533,"population":70817},{"city":"Lakeville","state":"Minnesota","latitude":44.6774,"longitude":-93.252,"population":70696},{"city":"St. Charles","state":"Missouri","latitude":38.7954,"longitude":-90.5157,"population":70687},{"city":"Redondo Beach","state":"California","latitude":33.8577,"longitude":-118.3765,"population":70620},{"city":"Spring Hill","state":"Tennessee","latitude":35.7437,"longitude":-86.9116,"population":70531},{"city":"Bayonne","state":"New Jersey","latitude":40.6668,"longitude":-74.1158,"population":70497},{"city":"Grand Forks","state":"North Dakota","latitude":47.9214,"longitude":-97.0884,"population":70475},{"city":"Noblesville","state":"Indiana","latitude":40.0355,"longitude":-86.0042,"population":70442},{"city":"Guaynabo","state":"Puerto Rico","latitude":18.3832,"longitude":-66.1134,"population":70167},{"city":"El Paso de Robles","state":"California","latitude":35.6394,"longitude":-120.656,"population":70128},{"city":"North Richland Hills","state":"Texas","latitude":32.8604,"longitude":-97.218,"population":70114},{"city":"Maple Grove","state":"Minnesota","latitude":45.1089,"longitude":-93.4626,"population":70110},{"city":"Passaic","state":"New Jersey","latitude":40.8574,"longitude":-74.1282,"population":70048},{"city":"Blaine","state":"Minnesota","latitude":45.1696,"longitude":-93.2077,"population":70047},{"city":"Lake Elsinore","state":"California","latitude":33.6847,"longitude":-117.3344,"population":69993},{"city":"Rogers","state":"Arkansas","latitude":36.317,"longitude":-94.1531,"population":69961},{"city":"Casas Adobes","state":"Arizona","latitude":32.3423,"longitude":-111.0113,"population":69917},{"city":"Sherman","state":"Texas","latitude":33.6273,"longitude":-96.6221,"population":69880},{"city":"Walnut Creek","state":"California","latitude":37.9024,"longitude":-122.0399,"population":69809},{"city":"Conway","state":"Arkansas","latitude":35.0753,"longitude":-92.4692,"population":69651},{"city":"Eastvale","state":"California","latitude":33.9617,"longitude":-117.5803,"population":69594},{"city":"Union City","state":"California","latitude":37.6032,"longitude":-122.0181,"population":69502},{"city":"Michigan City","state":"Indiana","latitude":41.7092,"longitude":-86.869,"population":69459},{"city":"Poinciana","state":"Florida","latitude":28.1217,"longitude":-81.4821,"population":69311},{"city":"Tulare","state":"California","latitude":36.1995,"longitude":-119.34,"population":69261},{"city":"Gary","state":"Indiana","latitude":41.5905,"longitude":-87.3473,"population":69136},{"city":"Gaithersburg","state":"Maryland","latitude":39.1346,"longitude":-77.2131,"population":69016},{"city":"East Orange","state":"New Jersey","latitude":40.7651,"longitude":-74.2117,"population":68879},{"city":"Wesley Chapel","state":"Florida","latitude":28.2106,"longitude":-82.3238,"population":68814},{"city":"West Des Moines","state":"Iowa","latitude":41.5521,"longitude":-93.7806,"population":68744},{"city":"Dalton","state":"Georgia","latitude":34.769,"longitude":-84.972,"population":68614},{"city":"Dubuque","state":"Iowa","latitude":42.5002,"longitude":-90.707,"population":68601},{"city":"Schenectady","state":"New York","latitude":42.8025,"longitude":-73.9275,"population":68476},{"city":"Ankeny","state":"Iowa","latitude":41.7288,"longitude":-93.6031,"population":68392},{"city":"Maricopa","state":"Arizona","latitude":33.0408,"longitude":-112.0011,"population":68376},{"city":"Eagan","state":"Minnesota","latitude":44.817,"longitude":-93.1638,"population":68262},{"city":"Hanford","state":"California","latitude":36.3274,"longitude":-119.6549,"population":68122},{"city":"Bristol","state":"Tennessee","latitude":36.5572,"longitude":-82.2154,"population":68083},{"city":"Yorba Linda","state":"California","latitude":33.889,"longitude":-117.7714,"population":68035},{"city":"Weston","state":"Florida","latitude":26.1006,"longitude":-80.4054,"population":68029},{"city":"Watsonville","state":"California","latitude":36.9206,"longitude":-121.7708,"population":68020},{"city":"Palo Alto","state":"California","latitude":37.3905,"longitude":-122.1468,"population":67901},{"city":"South Hill","state":"Washington","latitude":47.1198,"longitude":-122.2853,"population":67835},{"city":"Shawnee","state":"Kansas","latitude":39.0158,"longitude":-94.8076,"population":67671},{"city":"San Marcos","state":"Texas","latitude":29.8734,"longitude":-97.9356,"population":67491},{"city":"Great Falls","state":"Montana","latitude":47.5022,"longitude":-111.2996,"population":67300},{"city":"Haverhill","state":"Massachusetts","latitude":42.7838,"longitude":-71.0871,"population":67273},{"city":"Union City","state":"New Jersey","latitude":40.7675,"longitude":-74.0323,"population":67258},{"city":"Palatine","state":"Illinois","latitude":42.118,"longitude":-88.043,"population":67223},{"city":"Longview","state":"Washington","latitude":46.1461,"longitude":-122.963,"population":67203},{"city":"Corvallis","state":"Oregon","latitude":44.5698,"longitude":-123.2779,"population":67187},{"city":"Rockville","state":"Maryland","latitude":39.0834,"longitude":-77.1553,"population":67142},{"city":"Skokie","state":"Illinois","latitude":42.036,"longitude":-87.74,"population":67076},{"city":"Mount Vernon","state":"Washington","latitude":48.4203,"longitude":-122.3115,"population":66896},{"city":"Casper","state":"Wyoming","latitude":42.842,"longitude":-106.3208,"population":66876},{"city":"Ames","state":"Iowa","latitude":42.0256,"longitude":-93.6217,"population":66729},{"city":"Delray Beach","state":"Florida","latitude":26.455,"longitude":-80.0905,"population":66646},{"city":"Sammamish","state":"Washington","latitude":47.6017,"longitude":-122.0416,"population":66586},{"city":"Lynwood","state":"California","latitude":33.924,"longitude":-118.2016,"population":66346},{"city":"Dundalk","state":"Maryland","latitude":39.2704,"longitude":-76.4942,"population":66321},{"city":"Bethesda","state":"Maryland","latitude":38.9866,"longitude":-77.1188,"population":66316},{"city":"Morristown","state":"Tennessee","latitude":36.2043,"longitude":-83.3001,"population":66220},{"city":"Juana Díaz","state":"Puerto Rico","latitude":18.0532,"longitude":-66.5044,"population":66208},{"city":"Kankakee","state":"Illinois","latitude":41.102,"longitude":-87.8643,"population":66065},{"city":"Fajardo","state":"Puerto Rico","latitude":18.3331,"longitude":-65.6589,"population":66022},{"city":"Alpharetta","state":"Georgia","latitude":34.0704,"longitude":-84.2738,"population":65884},{"city":"Novi","state":"Michigan","latitude":42.4786,"longitude":-83.4893,"population":65870},{"city":"Kenner","state":"Louisiana","latitude":30.0109,"longitude":-90.2549,"population":65785},{"city":"Bay City","state":"Michigan","latitude":43.5902,"longitude":-83.8887,"population":65704},{"city":"Victoria","state":"Texas","latitude":28.8287,"longitude":-96.9849,"population":65656},{"city":"South San Francisco","state":"California","latitude":37.6538,"longitude":-122.4196,"population":65596},{"city":"Apex","state":"North Carolina","latitude":35.7237,"longitude":-78.8743,"population":65541},{"city":"Parkersburg","state":"West Virginia","latitude":39.2623,"longitude":-81.542,"population":65524},{"city":"Malden","state":"Massachusetts","latitude":42.4305,"longitude":-71.0576,"population":65463},{"city":"Castro Valley","state":"California","latitude":37.7088,"longitude":-122.0626,"population":65444},{"city":"Bozeman","state":"Montana","latitude":45.6833,"longitude":-111.0558,"population":65279},{"city":"Brentwood","state":"New York","latitude":40.7839,"longitude":-73.2522,"population":65042},{"city":"Waltham","state":"Massachusetts","latitude":42.3889,"longitude":-71.2423,"population":64711},{"city":"Pflugerville","state":"Texas","latitude":30.4515,"longitude":-97.6018,"population":64528},{"city":"North Little Rock","state":"Arkansas","latitude":34.7807,"longitude":-92.2371,"population":64454},{"city":"Brentwood","state":"California","latitude":37.9356,"longitude":-121.719,"population":64443},{"city":"Laguna Niguel","state":"California","latitude":33.5275,"longitude":-117.705,"population":64259},{"city":"San Clemente","state":"California","latitude":33.4499,"longitude":-117.6102,"population":64232},{"city":"Burnsville","state":"Minnesota","latitude":44.7648,"longitude":-93.2793,"population":64075},{"city":"Spring","state":"Texas","latitude":30.0613,"longitude":-95.383,"population":63930},{"city":"Port Charlotte","state":"Florida","latitude":26.9918,"longitude":-82.114,"population":63913},{"city":"Eden Prairie","state":"Minnesota","latitude":44.8488,"longitude":-93.4595,"population":63623},{"city":"Greenwood","state":"Indiana","latitude":39.6019,"longitude":-86.1073,"population":63579},{"city":"Millcreek","state":"Utah","latitude":40.6892,"longitude":-111.8292,"population":63520},{"city":"Bellevue","state":"Nebraska","latitude":41.1485,"longitude":-95.939,"population":63336},{"city":"Coon Rapids","state":"Minnesota","latitude":45.1755,"longitude":-93.3094,"population":63296},{"city":"Rowlett","state":"Texas","latitude":32.9155,"longitude":-96.5489,"population":63291},{"city":"Hamilton","state":"Ohio","latitude":39.3939,"longitude":-84.5653,"population":63149},{"city":"Lakewood","state":"Washington","latitude":47.1628,"longitude":-122.5299,"population":63142},{"city":"Florence-Graham","state":"California","latitude":33.9682,"longitude":-118.2447,"population":63132},{"city":"Commerce City","state":"Colorado","latitude":39.8641,"longitude":-104.843,"population":63050},{"city":"Bossier City","state":"Louisiana","latitude":32.5224,"longitude":-93.6668,"population":62971},{"city":"Taylor","state":"Michigan","latitude":42.226,"longitude":-83.2688,"population":62937},{"city":"La Habra","state":"California","latitude":33.9282,"longitude":-117.9515,"population":62904},{"city":"Port Orange","state":"Florida","latitude":29.1085,"longitude":-81.0137,"population":62849},{"city":"Moore","state":"Oklahoma","latitude":35.3293,"longitude":-97.4757,"population":62685},{"city":"Council Bluffs","state":"Iowa","latitude":41.2369,"longitude":-95.8516,"population":62670},{"city":"Leander","state":"Texas","latitude":30.5728,"longitude":-97.8618,"population":62491},{"city":"Dearborn Heights","state":"Michigan","latitude":42.3164,"longitude":-83.2769,"population":62474},{"city":"Reston","state":"Virginia","latitude":38.9497,"longitude":-77.3461,"population":62339},{"city":"Montebello","state":"California","latitude":34.0155,"longitude":-118.1108,"population":62056},{"city":"Pontiac","state":"Michigan","latitude":42.6493,"longitude":-83.2878,"population":61965},{"city":"Encinitas","state":"California","latitude":33.0492,"longitude":-117.261,"population":61942},{"city":"Queen Creek","state":"Arizona","latitude":33.2454,"longitude":-111.6173,"population":61788},{"city":"Medford","state":"Massachusetts","latitude":42.4234,"longitude":-71.1087,"population":61748},{"city":"Springfield","state":"Oregon","latitude":44.0538,"longitude":-122.9811,"population":61740},{"city":"Hendersonville","state":"Tennessee","latitude":36.3063,"longitude":-86.5997,"population":61589},{"city":"Palm Harbor","state":"Florida","latitude":28.0847,"longitude":-82.7481,"population":61589},{"city":"Pico Rivera","state":"California","latitude":33.9901,"longitude":-118.0888,"population":61561},{"city":"Marietta","state":"Georgia","latitude":33.9533,"longitude":-84.5422,"population":61387},{"city":"Wellington","state":"Florida","latitude":26.6461,"longitude":-80.2699,"population":61373},{"city":"Sanford","state":"Florida","latitude":28.7891,"longitude":-81.2757,"population":61272},{"city":"Woodland","state":"California","latitude":38.6712,"longitude":-121.75,"population":61227},{"city":"Caldwell","state":"Idaho","latitude":43.6453,"longitude":-116.6594,"population":61212},{"city":"Huntersville","state":"North Carolina","latitude":35.406,"longitude":-80.8716,"population":61202},{"city":"Bristol","state":"Connecticut","latitude":41.6812,"longitude":-72.9407,"population":61052},{"city":"Jupiter","state":"Florida","latitude":26.92,"longitude":-80.1128,"population":60926},{"city":"San Rafael","state":"California","latitude":37.9905,"longitude":-122.5221,"population":60891},{"city":"La Mesa","state":"California","latitude":32.7703,"longitude":-117.0204,"population":60888},{"city":"Richland","state":"Washington","latitude":46.2824,"longitude":-119.2939,"population":60867},{"city":"Revere","state":"Massachusetts","latitude":42.4189,"longitude":-71.004,"population":60577},{"city":"Meriden","state":"Connecticut","latitude":41.5369,"longitude":-72.7946,"population":60556},{"city":"Monterey Park","state":"California","latitude":34.0497,"longitude":-118.1326,"population":60386},{"city":"Gardena","state":"California","latitude":33.8943,"longitude":-118.3072,"population":60377},{"city":"Euless","state":"Texas","latitude":32.8508,"longitude":-97.08,"population":60360},{"city":"Des Plaines","state":"Illinois","latitude":42.0345,"longitude":-87.9008,"population":60087},{"city":"West Allis","state":"Wisconsin","latitude":43.0068,"longitude":-88.0296,"population":59907},{"city":"North Miami","state":"Florida","latitude":25.9008,"longitude":-80.1686,"population":59854},{"city":"St. Cloud","state":"Florida","latitude":28.2363,"longitude":-81.2779,"population":59851},{"city":"The Hammocks","state":"Florida","latitude":25.67,"longitude":-80.4482,"population":59843},{"city":"Cupertino","state":"California","latitude":37.3168,"longitude":-122.0466,"population":59763},{"city":"Taylorsville","state":"Utah","latitude":40.6569,"longitude":-111.9493,"population":59729},{"city":"Petaluma","state":"California","latitude":38.2423,"longitude":-122.6266,"population":59682},{"city":"Kokomo","state":"Indiana","latitude":40.464,"longitude":-86.1277,"population":59534},{"city":"Santee","state":"California","latitude":32.8554,"longitude":-116.9851,"population":59497},{"city":"Stonecrest","state":"Georgia","latitude":33.6842,"longitude":-84.1372,"population":59445},{"city":"Taunton","state":"Massachusetts","latitude":41.9036,"longitude":-71.0943,"population":59436},{"city":"White Plains","state":"New York","latitude":41.022,"longitude":-73.7547,"population":59421},{"city":"Palm Beach Gardens","state":"Florida","latitude":26.8466,"longitude":-80.1679,"population":59088},{"city":"Chapel Hill","state":"North Carolina","latitude":35.9271,"longitude":-79.0391,"population":58919},{"city":"Hoboken","state":"New Jersey","latitude":40.7452,"longitude":-74.0281,"population":58754},{"city":"Parker","state":"Colorado","latitude":39.5084,"longitude":-104.7753,"population":58733},{"city":"Blue Springs","state":"Missouri","latitude":39.0124,"longitude":-94.2721,"population":58720},{"city":"Shoreline","state":"Washington","latitude":47.7564,"longitude":-122.3426,"population":58673},{"city":"St. Clair Shores","state":"Michigan","latitude":42.4925,"longitude":-82.8961,"population":58656},{"city":"Horizon West","state":"Florida","latitude":28.4417,"longitude":-81.6146,"population":58595},{"city":"Margate","state":"Florida","latitude":26.2466,"longitude":-80.2119,"population":58396},{"city":"Orland Park","state":"Illinois","latitude":41.6075,"longitude":-87.8619,"population":58345},{"city":"Carson City","state":"Nevada","latitude":39.1511,"longitude":-119.7476,"population":58249},{"city":"Midwest City","state":"Oklahoma","latitude":35.463,"longitude":-97.371,"population":58124},{"city":"Royal Oak","state":"Michigan","latitude":42.5084,"longitude":-83.1539,"population":58053},{"city":"Bowie","state":"Maryland","latitude":38.9549,"longitude":-76.7406,"population":57922},{"city":"Kettering","state":"Ohio","latitude":39.6956,"longitude":-84.1494,"population":57707},{"city":"St. Peters","state":"Missouri","latitude":38.7825,"longitude":-90.6061,"population":57692},{"city":"Oak Lawn","state":"Illinois","latitude":41.7139,"longitude":-87.7528,"population":57665},{"city":"Towson","state":"Maryland","latitude":39.3944,"longitude":-76.619,"population":57617},{"city":"Coconut Creek","state":"Florida","latitude":26.2803,"longitude":-80.1842,"population":57574},{"city":"Decatur","state":"Alabama","latitude":34.5731,"longitude":-86.9905,"population":57525},{"city":"Lenexa","state":"Kansas","latitude":38.9609,"longitude":-94.8018,"population":57497},{"city":"Bartlett","state":"Tennessee","latitude":35.2337,"longitude":-89.8195,"population":57481},{"city":"South Whittier","state":"California","latitude":33.9336,"longitude":-118.0312,"population":57383},{"city":"Lake Havasu City","state":"Arizona","latitude":34.5006,"longitude":-114.3113,"population":57294},{"city":"Bel Air South","state":"Maryland","latitude":39.5022,"longitude":-76.3113,"population":57109},{"city":"Fountainebleau","state":"Florida","latitude":25.7723,"longitude":-80.346,"population":57066},{"city":"Wylie","state":"Texas","latitude":33.0362,"longitude":-96.5161,"population":57063},{"city":"Madison","state":"Alabama","latitude":34.7114,"longitude":-86.7626,"population":56967},{"city":"Brookhaven","state":"Georgia","latitude":33.8743,"longitude":-84.3314,"population":56848},{"city":"Highland","state":"California","latitude":34.1113,"longitude":-117.165,"population":56789},{"city":"Fountain Valley","state":"California","latitude":33.7105,"longitude":-117.9514,"population":56754},{"city":"Berwyn","state":"Illinois","latitude":41.8433,"longitude":-87.7909,"population":56556},{"city":"Severn","state":"Maryland","latitude":39.1355,"longitude":-76.6956,"population":56438},{"city":"Albany","state":"Oregon","latitude":44.6272,"longitude":-123.0965,"population":56348},{"city":"National City","state":"California","latitude":32.6654,"longitude":-117.0983,"population":56345},{"city":"Lacey","state":"Washington","latitude":47.0462,"longitude":-122.7933,"population":56263},{"city":"Mount Prospect","state":"Illinois","latitude":42.0641,"longitude":-87.9375,"population":56191},{"city":"Arcadia","state":"California","latitude":34.1342,"longitude":-118.0373,"population":56181},{"city":"DeSoto","state":"Texas","latitude":32.5992,"longitude":-96.8633,"population":55882},{"city":"Smyrna","state":"Georgia","latitude":33.8633,"longitude":-84.5168,"population":55863},{"city":"Bradenton","state":"Florida","latitude":27.4901,"longitude":-82.5757,"population":55795},{"city":"New Brunswick","state":"New Jersey","latitude":40.487,"longitude":-74.445,"population":55718},{"city":"Apple Valley","state":"Minnesota","latitude":44.7457,"longitude":-93.2004,"population":55594},{"city":"Tinley Park","state":"Illinois","latitude":41.567,"longitude":-87.8049,"population":55571},{"city":"Sarasota","state":"Florida","latitude":27.3387,"longitude":-82.5432,"population":55508},{"city":"Hacienda Heights","state":"California","latitude":33.997,"longitude":-117.9727,"population":55461},{"city":"Chicopee","state":"Massachusetts","latitude":42.1764,"longitude":-72.5719,"population":55441},{"city":"West Haven","state":"Connecticut","latitude":41.2739,"longitude":-72.9672,"population":55336},{"city":"Herriman","state":"Utah","latitude":40.4899,"longitude":-112.017,"population":55301},{"city":"Perth Amboy","state":"New Jersey","latitude":40.5202,"longitude":-74.2724,"population":55226},{"city":"Casa Grande","state":"Arizona","latitude":32.9069,"longitude":-111.7624,"population":55186},{"city":"Tigard","state":"Oregon","latitude":45.4237,"longitude":-122.7845,"population":55161},{"city":"Apopka","state":"Florida","latitude":28.7015,"longitude":-81.5316,"population":55056},{"city":"Southaven","state":"Mississippi","latitude":34.9514,"longitude":-89.9786,"population":54908},{"city":"Huntington Park","state":"California","latitude":33.98,"longitude":-118.2167,"population":54547},{"city":"Diamond Bar","state":"California","latitude":33.9992,"longitude":-117.8161,"population":54534},{"city":"Bentonville","state":"Arkansas","latitude":36.3547,"longitude":-94.2305,"population":54513},{"city":"Yucaipa","state":"California","latitude":34.0336,"longitude":-117.0429,"population":54428},{"city":"Plainfield","state":"New Jersey","latitude":40.6154,"longitude":-74.4157,"population":54358},{"city":"Manhattan","state":"Kansas","latitude":39.1886,"longitude":-96.6048,"population":54287},{"city":"Aspen Hill","state":"Maryland","latitude":39.0927,"longitude":-77.0826,"population":54262},{"city":"Rocky Mount","state":"North Carolina","latitude":35.9685,"longitude":-77.804,"population":54260},{"city":"Peabody","state":"Massachusetts","latitude":42.5335,"longitude":-70.9725,"population":54204},{"city":"West Sacramento","state":"California","latitude":38.5557,"longitude":-121.5505,"population":54163},{"city":"San Jacinto","state":"California","latitude":33.797,"longitude":-116.9916,"population":54077},{"city":"Kentwood","state":"Michigan","latitude":42.8852,"longitude":-85.5926,"population":54042},{"city":"Colton","state":"California","latitude":34.0538,"longitude":-117.3255,"population":53959},{"city":"Oak Park","state":"Illinois","latitude":41.8872,"longitude":-87.7899,"population":53834},{"city":"Westchester","state":"Florida","latitude":25.7471,"longitude":-80.3523,"population":53765},{"city":"Smyrna","state":"Tennessee","latitude":35.9687,"longitude":-86.5264,"population":53760},{"city":"Wheaton","state":"Illinois","latitude":41.8561,"longitude":-88.1085,"population":53673},{"city":"Beaumont","state":"California","latitude":33.9076,"longitude":-116.9766,"population":53544},{"city":"Aloha","state":"Oregon","latitude":45.492,"longitude":-122.8725,"population":53532},{"city":"Minnetonka","state":"Minnesota","latitude":44.9322,"longitude":-93.4598,"population":53529},{"city":"Pinellas Park","state":"Florida","latitude":27.8589,"longitude":-82.7078,"population":53352},{"city":"Kannapolis","state":"North Carolina","latitude":35.4764,"longitude":-80.6408,"population":53314},{"city":"Paramount","state":"California","latitude":33.8977,"longitude":-118.1651,"population":53255},{"city":"Texas City","state":"Texas","latitude":29.4154,"longitude":-94.9682,"population":53084},{"city":"Novato","state":"California","latitude":38.092,"longitude":-122.5575,"population":53055},{"city":"Edina","state":"Minnesota","latitude":44.8914,"longitude":-93.3602,"population":53037},{"city":"Normal","state":"Illinois","latitude":40.5217,"longitude":-88.9884,"population":52920},{"city":"Tamiami","state":"Florida","latitude":25.7556,"longitude":-80.4016,"population":52851},{"city":"Grand Island","state":"Nebraska","latitude":40.9218,"longitude":-98.3586,"population":52822},{"city":"Methuen Town","state":"Massachusetts","latitude":42.734,"longitude":-71.1889,"population":52812},{"city":"Elyria","state":"Ohio","latitude":41.376,"longitude":-82.106,"population":52780},{"city":"Wheaton","state":"Maryland","latitude":39.0492,"longitude":-77.0573,"population":52775},{"city":"Kendale Lakes","state":"Florida","latitude":25.7081,"longitude":-80.4078,"population":52661},{"city":"Marana","state":"Arizona","latitude":32.4355,"longitude":-111.1558,"population":52542},{"city":"West New York","state":"New Jersey","latitude":40.7857,"longitude":-74.0094,"population":52438},{"city":"Twin Falls","state":"Idaho","latitude":42.5645,"longitude":-114.4613,"population":52315},{"city":"Florissant","state":"Missouri","latitude":38.7996,"longitude":-90.3269,"population":52167},{"city":"Glendora","state":"California","latitude":34.1449,"longitude":-117.8467,"population":52095},{"city":"Cathedral City","state":"California","latitude":33.8362,"longitude":-116.4642,"population":51964},{"city":"Aliso Viejo","state":"California","latitude":33.5792,"longitude":-117.7289,"population":51896},{"city":"Placentia","state":"California","latitude":33.8807,"longitude":-117.8553,"population":51797},{"city":"Hoffman Estates","state":"Illinois","latitude":42.064,"longitude":-88.1468,"population":51744},{"city":"Burien","state":"Washington","latitude":47.4762,"longitude":-122.3394,"population":51505},{"city":"Dunwoody","state":"Georgia","latitude":33.9418,"longitude":-84.3122,"population":51458},{"city":"Palm Desert","state":"California","latitude":33.7378,"longitude":-116.3695,"population":51290},{"city":"Troy","state":"New York","latitude":42.7354,"longitude":-73.6751,"population":51268},{"city":"Collierville","state":"Tennessee","latitude":35.047,"longitude":-89.6987,"population":51170},{"city":"Levittown","state":"Pennsylvania","latitude":40.1533,"longitude":-74.8531,"population":51152},{"city":"Rosemead","state":"California","latitude":34.0689,"longitude":-118.0823,"population":51043},{"city":"Country Club","state":"Florida","latitude":25.9407,"longitude":-80.3102,"population":50975},{"city":"Enid","state":"Oklahoma","latitude":36.4063,"longitude":-97.87,"population":50961},{"city":"Cuyahoga Falls","state":"Ohio","latitude":41.1641,"longitude":-81.5207,"population":50916},{"city":"Mishawaka","state":"Indiana","latitude":41.6742,"longitude":-86.1666,"population":50899},{"city":"Columbus","state":"Indiana","latitude":39.2093,"longitude":-85.9183,"population":50896},{"city":"Summerville","state":"South Carolina","latitude":33.0016,"longitude":-80.1799,"population":50839},{"city":"Levittown","state":"New York","latitude":40.7241,"longitude":-73.5125,"population":50804},{"city":"Grapevine","state":"Texas","latitude":32.9343,"longitude":-97.0742,"population":50763},{"city":"Covina","state":"California","latitude":34.0903,"longitude":-117.8818,"population":50717},{"city":"Milford city ","state":"Connecticut","latitude":41.2255,"longitude":-73.0625,"population":50664},{"city":"Draper","state":"Utah","latitude":40.4957,"longitude":-111.8605,"population":50635},{"city":"Lakewood","state":"Ohio","latitude":41.4822,"longitude":-81.8008,"population":50605},{"city":"Catalina Foothills","state":"Arizona","latitude":32.3046,"longitude":-110.8838,"population":50573},{"city":"Delano","state":"California","latitude":35.7662,"longitude":-119.2635,"population":50498},{"city":"Lincoln","state":"California","latitude":38.8774,"longitude":-121.2937,"population":50131},{"city":"Murray","state":"Utah","latitude":40.6498,"longitude":-111.8874,"population":50041},{"city":"Mooresville","state":"North Carolina","latitude":35.5847,"longitude":-80.8266,"population":50025},{"city":"Downers Grove","state":"Illinois","latitude":41.7949,"longitude":-88.0172,"population":49996},{"city":"Florin","state":"California","latitude":38.4832,"longitude":-121.4043,"population":49992},{"city":"Cypress","state":"California","latitude":33.8171,"longitude":-118.0386,"population":49955},{"city":"Jeffersonville","state":"Indiana","latitude":38.3376,"longitude":-85.7026,"population":49771},{"city":"North Bethesda","state":"Maryland","latitude":39.0393,"longitude":-77.1191,"population":49763},{"city":"Azusa","state":"California","latitude":34.1386,"longitude":-117.9124,"population":49704},{"city":"Coral Gables","state":"Florida","latitude":25.7037,"longitude":-80.2715,"population":49696},{"city":"Chesterfield","state":"Missouri","latitude":38.6589,"longitude":-90.5803,"population":49645},{"city":"McLean","state":"Virginia","latitude":38.9436,"longitude":-77.1943,"population":49587},{"city":"St. Louis Park","state":"Minnesota","latitude":44.9488,"longitude":-93.3649,"population":49500},{"city":"East Honolulu","state":"Hawaii","latitude":21.2975,"longitude":-157.7211,"population":49491},{"city":"Bedford","state":"Texas","latitude":32.8464,"longitude":-97.135,"population":49455},{"city":"Euclid","state":"Ohio","latitude":41.5903,"longitude":-81.5188,"population":49279},{"city":"Lawrence","state":"Indiana","latitude":39.8674,"longitude":-85.9904,"population":49218},{"city":"Ceres","state":"California","latitude":37.5952,"longitude":-120.962,"population":49183},{"city":"University","state":"Florida","latitude":28.0771,"longitude":-82.4335,"population":49148},{"city":"Biloxi","state":"Mississippi","latitude":30.4426,"longitude":-88.9514,"population":49141},{"city":"El Dorado Hills","state":"California","latitude":38.675,"longitude":-121.049,"population":49082},{"city":"Cerritos","state":"California","latitude":33.8678,"longitude":-118.0686,"population":49016},{"city":"Burleson","state":"Texas","latitude":32.517,"longitude":-97.3344,"population":48970},{"city":"Portage","state":"Michigan","latitude":42.2,"longitude":-85.5906,"population":48936},{"city":"Dublin","state":"Ohio","latitude":40.1112,"longitude":-83.1454,"population":48893},{"city":"Poway","state":"California","latitude":32.9871,"longitude":-117.0201,"population":48737},{"city":"Cedar Hill","state":"Texas","latitude":32.581,"longitude":-96.9591,"population":48733},{"city":"Everett","state":"Massachusetts","latitude":42.4064,"longitude":-71.0545,"population":48685},{"city":"Stillwater","state":"Oklahoma","latitude":36.1317,"longitude":-97.0742,"population":48644},{"city":"Titusville","state":"Florida","latitude":28.5727,"longitude":-80.8193,"population":48595},{"city":"Niagara Falls","state":"New York","latitude":43.0921,"longitude":-79.0147,"population":48502},{"city":"Kyle","state":"Texas","latitude":29.9932,"longitude":-97.8852,"population":48484},{"city":"Leesburg","state":"Virginia","latitude":39.1057,"longitude":-77.5544,"population":48465},{"city":"Westfield","state":"Indiana","latitude":40.0341,"longitude":-86.1529,"population":48262},{"city":"Little Elm","state":"Texas","latitude":33.1858,"longitude":-96.9295,"population":48241},{"city":"Middletown","state":"Connecticut","latitude":41.5476,"longitude":-72.6549,"population":48152},{"city":"North Highlands","state":"California","latitude":38.6713,"longitude":-121.3721,"population":48083},{"city":"Tuckahoe","state":"Virginia","latitude":37.5878,"longitude":-77.5858,"population":48049},{"city":"Wake Forest","state":"North Carolina","latitude":35.9632,"longitude":-78.514,"population":48047},{"city":"Minot","state":"North Dakota","latitude":48.2375,"longitude":-101.278,"population":48038},{"city":"Roswell","state":"New Mexico","latitude":33.373,"longitude":-104.5294,"population":48035},{"city":"Wauwatosa","state":"Wisconsin","latitude":43.0616,"longitude":-88.0347,"population":47919},{"city":"Bothell","state":"Washington","latitude":47.7735,"longitude":-122.2044,"population":47917},{"city":"Glenview","state":"Illinois","latitude":42.0825,"longitude":-87.8214,"population":47896},{"city":"Rockwall","state":"Texas","latitude":32.9169,"longitude":-96.4374,"population":47859},{"city":"Wilson","state":"North Carolina","latitude":35.7311,"longitude":-77.9284,"population":47767},{"city":"Rancho Santa Margarita","state":"California","latitude":33.6318,"longitude":-117.5988,"population":47702},{"city":"La Mirada","state":"California","latitude":33.9025,"longitude":-118.0093,"population":47644},{"city":"Antelope","state":"California","latitude":38.7153,"longitude":-121.361,"population":47629},{"city":"Hilo","state":"Hawaii","latitude":19.6883,"longitude":-155.0863,"population":47627},{"city":"San Luis Obispo","state":"California","latitude":35.2669,"longitude":-120.669,"population":47529},{"city":"Roseville","state":"Michigan","latitude":42.5074,"longitude":-82.9369,"population":47476},{"city":"Newark","state":"California","latitude":37.5201,"longitude":-122.0307,"population":47470},{"city":"Mentor","state":"Ohio","latitude":41.6893,"longitude":-81.3362,"population":47302},{"city":"Ocoee","state":"Florida","latitude":28.5796,"longitude":-81.5332,"population":47290},{"city":"Rowland Heights","state":"California","latitude":33.9716,"longitude":-117.8912,"population":47209},